[
    { "id": "1", "name": "Adrar", "municipality": [{ "location": { "lon": -0.1869644, "lat": 27.9716342 }, "name": "Adrar", "id": "1", "zipCode": "01001" }, { "location": { "lon": -0.2457477, "lat": 27.4257241 }, "name": "Tamest", "id": "2", "zipCode": "01002" }, { "location": { "lon": -0.259657, "lat": 29.0195565 }, "name": "Charouine", "id": "3", "zipCode": "01003" }, { "location": { "lon": -1.5208624, "lat": 25.2759633 }, "name": "Reggane", "id": "4", "zipCode": "01004" }, { "location": { "lon": 1.4869856, "lat": 26.936237 }, "name": "Tit", "id": "6", "zipCode": "01006" }, { "location": { "lon": 0.3724815, "lat": 29.5827395 }, "name": "Ksar Kaddour", "id": "7", "zipCode": "01007" }, { "location": { "lon": -0.2186041, "lat": 28.3504036 }, "name": "Tsabit", "id": "8", "zipCode": "01008" }, { "location": { "lon": 0.2385387, "lat": 29.2609217 }, "name": "Timimoun", "id": "9", "zipCode": "01009" }, { "location": { "lon": 0.2455769, "lat": 29.4206093 }, "name": "Ouled Said", "id": "10", "zipCode": "01010" }, { "location": { "lon": -0.2010233, "lat": 27.2263135 }, "name": "Zaouiet Kounta", "id": "11", "zipCode": "01011" }, { "location": { "lon": 1.0729818, "lat": 26.9752935 }, "name": "Aoulef", "id": "12", "zipCode": "01012" }, { "location": { "lon": 1.0442502, "lat": 27.0225931 }, "name": "Timokten", "id": "13", "zipCode": "01013" }, { "location": { "lon": -0.266699, "lat": 27.7664008 }, "name": "Tamentit", "id": "14", "zipCode": "01014" }, { "location": { "lon": -0.3042778, "lat": 27.6490194 }, "name": "Fenoughil", "id": "15", "zipCode": "01015" }, { "location": { "lon": 0.7105267, "lat": 29.711749 }, "name": "Tinerkouk", "id": "16", "zipCode": "01016" }, { "location": { "lon": -0.0877444, "lat": 27.0363493 }, "name": "Sali", "id": "18", "zipCode": "01018" }, { "location": { "lon": 1.3613923, "lat": 26.7018955 }, "name": "Akabli", "id": "19", "zipCode": "01019" }, { "location": { "lon": -0.1448182, "lat": 28.5972281 }, "name": "Metarfa", "id": "20", "zipCode": "01020" }, { "location": { "lon": -0.2807577, "lat": 27.8515174 }, "name": "O Ahmed Timmi", "id": "21", "zipCode": "01021" }, { "location": { "lon": -0.4246315, "lat": 27.9554196 }, "name": "Bouda", "id": "22", "zipCode": "01022" }, { "location": { "lon": 0.25, "lat": 28.75 }, "name": "Aougrout", "id": "23", "zipCode": "01023" }, { "location": { "lon": -0.9056623, "lat": 23.760643 }, "name": "B Badji Mokhtar", "id": "25", "zipCode": "01025" }, { "location": { "lon": -0.1729106, "lat": 28.211617 }, "name": "Sbaa", "id": "26", "zipCode": "01026" }, { "location": { "lon": -0.08869479999999999, "lat": 29.4237071 }, "name": "Ouled Aissa", "id": "27", "zipCode": "01027" }, { "location": { "lon": 1.6760691, "lat": 20.8948062 }, "name": "Timiaouine", "id": "28", "zipCode": "01028" }] },
    { "id": "2", "name": "Chlef", "municipality": [{ "location": { "lon": 1.3083685, "lat": 36.147424 }, "name": "Chlef", "id": "29", "zipCode": "02001" }, { "location": { "lon": 1.3180042, "lat": 36.5049038 }, "name": "Tenes", "id": "30", "zipCode": "02002" }, { "location": { "lon": 1.374987, "lat": 36.3540039 }, "name": "Benairia", "id": "31", "zipCode": "02003" }, { "location": { "lon": 1.5693045, "lat": 36.08997910000001 }, "name": "El Karimia", "id": "32", "zipCode": "02004" }, { "location": { "lon": 1.1377008, "lat": 36.3254557 }, "name": "Tadjna", "id": "33", "zipCode": "02005" }, { "location": { "lon": 0.9223635999999998, "lat": 36.2459846 }, "name": "Taougrite", "id": "34", "zipCode": "02006" }, { "location": { "lon": 1.5402327, "lat": 36.4914417 }, "name": "Beni Haoua", "id": "35", "zipCode": "02007" }, { "location": { "lon": 1.110123, "lat": 36.1100346 }, "name": "Sobha", "id": "36", "zipCode": "02008" }, { "location": { "lon": 1.4918235, "lat": 36.1126987 }, "name": "Harchoun", "id": "37", "zipCode": "02009" }, { "location": { "lon": 1.236999, "lat": 36.2316052 }, "name": "Ouled Fares", "id": "38", "zipCode": "02010" }, { "location": { "lon": 1.3469247, "lat": 36.4505105 }, "name": "Sidi Akacha", "id": "39", "zipCode": "02011" }, { "location": { "lon": 1.1209121, "lat": 36.0569401 }, "name": "Boukadir", "id": "40", "zipCode": "02012" }, { "location": { "lon": 1.5015009, "lat": 36.2753891 }, "name": "Beni Rached", "id": "41", "zipCode": "02013" }, { "location": { "lon": 1.0849592, "lat": 36.4288223 }, "name": "Talassa", "id": "42", "zipCode": "02014" }, { "location": { "lon": 1.0514312, "lat": 36.2449244 }, "name": "Herenfa", "id": "43", "zipCode": "02015" }, { "location": { "lon": 1.4531355, "lat": 36.5033408 }, "name": "Oued Goussine", "id": "44", "zipCode": "02016" }, { "location": { "lon": 0.8508345, "lat": 36.25736 }, "name": "Dahra", "id": "45", "zipCode": "02017" }, { "location": { "lon": 1.4918235, "lat": 36.2212775 }, "name": "Ouled Abbes", "id": "46", "zipCode": "02018" }, { "location": { "lon": 1.4241426, "lat": 36.0591718 }, "name": "Sendjas", "id": "47", "zipCode": "02019" }, { "location": { "lon": 1.4628042, "lat": 36.4058679 }, "name": "Zeboudja", "id": "48", "zipCode": "02020" }, { "location": { "lon": 1.2313618, "lat": 36.1047797 }, "name": "Oued Sly", "id": "49", "zipCode": "02021" }, { "location": { "lon": 1.1929114, "lat": 36.4088563 }, "name": "Abou El Hassen", "id": "50", "zipCode": "02022" }, { "location": { "lon": 0.9175911, "lat": 36.4031597 }, "name": "El Marsa", "id": "51", "zipCode": "02023" }, { "location": { "lon": 1.2409799, "lat": 36.1589988 }, "name": "Chettia", "id": "52", "zipCode": "02024" }, { "location": { "lon": 1.0957418, "lat": 36.4922766 }, "name": "Sidi Abderrahmane", "id": "53", "zipCode": "02025" }, { "location": { "lon": 1.0083637, "lat": 36.3536988 }, "name": "Moussadek", "id": "54", "zipCode": "02026" }, { "location": { "lon": 1.3469247, "lat": 36.0165552 }, "name": "El Hadjadj", "id": "55", "zipCode": "02027" }, { "location": { "lon": 1.3855161, "lat": 36.2767832 }, "name": "Labiod Medjadja", "id": "56", "zipCode": "02028" }, { "location": { "lon": 1.5499211, "lat": 36.1988388 }, "name": "Oued Fodda", "id": "57", "zipCode": "02029" }, { "location": { "lon": 1.2698475, "lat": 36.0173924 }, "name": "Ouled Ben Abdelkader", "id": "58", "zipCode": "02030" }, { "location": { "lon": 1.2417743, "lat": 36.3397492 }, "name": "Bouzghaia", "id": "59", "zipCode": "02031" }, { "location": { "lon": 0.9778686, "lat": 36.1608508 }, "name": "Ain Merane", "id": "60", "zipCode": "02032" }, { "location": { "lon": 1.4144827, "lat": 36.200509 }, "name": "Oum Drou", "id": "61", "zipCode": "02033" }, { "location": { "lon": 1.5789994, "lat": 36.447678 }, "name": "Breira", "id": "62", "zipCode": "02034" }] },
    { "id": "3", "name": "Laghouat", "municipality": [{ "location": { "lon": 2.8694065, "lat": 33.7972551 }, "name": "Laghouat", "id": "64", "zipCode": "03001" }, { "location": { "lon": 3.1328011, "lat": 33.7847662 }, "name": "Ksar El Hirane", "id": "65", "zipCode": "03002" }, { "location": { "lon": 3.0050628, "lat": 33.7516533 }, "name": "Benacer Ben Chohra", "id": "66", "zipCode": "03003" }, { "location": { "lon": 3.014781, "lat": 34.127625 }, "name": "Sidi Makhlouf", "id": "67", "zipCode": "03004" }, { "location": { "lon": 3.5483781, "lat": 33.4186197 }, "name": "Hassi Delaa", "id": "68", "zipCode": "03005" }, { "location": { "lon": 3.2684215, "lat": 32.9349916 }, "name": "Hassi R Mel", "id": "69", "zipCode": "03006" }, { "location": { "lon": 2.2999821, "lat": 33.7946585 }, "name": "Ain Mahdi", "id": "70", "zipCode": "03007" }, { "location": { "lon": 2.5272209, "lat": 33.8794929 }, "name": "Tadjmout", "id": "71", "zipCode": "03008" }, { "location": { "lon": 2.7954106, "lat": 33.7453939 }, "name": "Kheneg", "id": "72", "zipCode": "03009" }, { "location": { "lon": 1.9416877, "lat": 34.2962822 }, "name": "Gueltat Sidi Saad", "id": "73", "zipCode": "03010" }, { "location": { "lon": 1.55, "lat": 34.1666669 }, "name": "Ain Sidi Ali", "id": "74", "zipCode": "03011" }, { "location": { "lon": 1.7502311, "lat": 33.9500722 }, "name": "Brida", "id": "76", "zipCode": "03013" }, { "location": { "lon": 2.1437968, "lat": 33.9299401 }, "name": "El Ghicha", "id": "77", "zipCode": "03014" }, { "location": { "lon": 1.5992068, "lat": 33.9571296 }, "name": "Hadj Mechri", "id": "78", "zipCode": "03015" }, { "location": { "lon": 1.8635409, "lat": 33.8689577 }, "name": "Taouiala", "id": "80", "zipCode": "03017" }, { "location": { "lon": 2.101217, "lat": 33.503632 }, "name": "Tadjrouna", "id": "81", "zipCode": "03018" }, { "location": { "lon": 2.1008486, "lat": 34.10748640000001 }, "name": "Aflou", "id": "82", "zipCode": "03019" }, { "location": { "lon": 2.990057, "lat": 33.824559 }, "name": "El Assafia", "id": "83", "zipCode": "03020" }, { "location": { "lon": 2.3166669, "lat": 34.1666669 }, "name": "Oued Morra", "id": "84", "zipCode": "03021" }, { "location": { "lon": 2.8694065, "lat": 33.7972551 }, "name": "Oued M Zi", "id": "85", "zipCode": "03022" }, { "location": { "lon": 2.263468, "lat": 34.342998 }, "name": "Sidi Bouzid", "id": "87", "zipCode": "03024" }] },
    { "id": "4", "name": "Oum El Bouaghi", "municipality": [{ "location": { "lon": 7.1197867, "lat": 35.873056 }, "name": "Oum El Bouaghi", "id": "88", "zipCode": "04001" }, { "location": { "lon": 7.392173400000001, "lat": 35.7981327 }, "name": "Ain Beida", "id": "89", "zipCode": "04002" }, { "location": { "lon": 6.556988199999999, "lat": 36.0189518 }, "name": "Ainmlila", "id": "90", "zipCode": "04003" }, { "location": { "lon": 7.7185878, "lat": 35.7940171 }, "name": "Behir Chergui", "id": "91", "zipCode": "04004" }, { "location": { "lon": 6.904832099999999, "lat": 36.1101777 }, "name": "El Amiria", "id": "92", "zipCode": "04005" }, { "location": { "lon": 6.770813800000001, "lat": 36.09368440000001 }, "name": "Sigus", "id": "93", "zipCode": "04006" }, { "location": { "lon": 7.788537400000001, "lat": 35.6653463 }, "name": "El Belala", "id": "94", "zipCode": "04007" }, { "location": { "lon": 7.181719999999999, "lat": 35.9425396 }, "name": "Ain Babouche", "id": "95", "zipCode": "04008" }, { "location": { "lon": 7.3759671, "lat": 35.9144973 }, "name": "Berriche", "id": "96", "zipCode": "04009" }, { "location": { "lon": 6.471658, "lat": 36.0669135 }, "name": "Ouled Hamla", "id": "97", "zipCode": "04010" }, { "location": { "lon": 7.549096999999999, "lat": 35.4582557 }, "name": "Dhala", "id": "98", "zipCode": "04011" }, { "location": { "lon": 6.6905458, "lat": 35.9302835 }, "name": "Ain Kercha", "id": "99", "zipCode": "04012" }, { "location": { "lon": 6.7413706, "lat": 35.9355726 }, "name": "Hanchir Toumghani", "id": "100", "zipCode": "04013" }, { "location": { "lon": 7.507127099999999, "lat": 35.6635514 }, "name": "El Djazia", "id": "101", "zipCode": "04014" }, { "location": { "lon": 7.300360400000001, "lat": 35.6640497 }, "name": "Fkirina", "id": "103", "zipCode": "04016" }, { "location": { "lon": 6.386442799999999, "lat": 35.9414231 }, "name": "Souk Naamane", "id": "104", "zipCode": "04017" }, { "location": { "lon": 6.5143087, "lat": 35.8477341 }, "name": "Ouled Zouai", "id": "107", "zipCode": "04020" }, { "location": { "lon": 6.2925058, "lat": 35.8966254 }, "name": "Bir Chouhada", "id": "108", "zipCode": "04021" }, { "location": { "lon": 7.2571943, "lat": 36.0841308 }, "name": "Ksar Sbahi", "id": "109", "zipCode": "04022" }, { "location": { "lon": 7.347604800000001, "lat": 35.5700761 }, "name": "Oued Nini", "id": "110", "zipCode": "04023" }, { "location": { "lon": 7.6710889, "lat": 35.6328262 }, "name": "Meskiana", "id": "111", "zipCode": "04024" }, { "location": { "lon": 6.8708486, "lat": 35.9736892 }, "name": "Ain Fekroune", "id": "112", "zipCode": "04025" }, { "location": { "lon": 7.666667, "lat": 35.716667 }, "name": "Rahia", "id": "113", "zipCode": "04026" }, { "location": { "lon": 6.935674, "lat": 35.6842651 }, "name": "Ain Zitoun", "id": "114", "zipCode": "04027" }, { "location": { "lon": 6.6223966, "lat": 35.9245726 }, "name": "El Harmilia", "id": "116", "zipCode": "04029" }] },
    { "id": "5", "name": "Batna", "municipality": [{ "location": { "lon": 6.173911599999999, "lat": 35.5610218 }, "name": "Batna", "id": "117", "zipCode": "05001" }, { "location": { "lon": 6.2163597, "lat": 35.0777543 }, "name": "Ghassira", "id": "118", "zipCode": "05002" }, { "location": { "lon": 5.8775964, "lat": 35.269936 }, "name": "Maafa", "id": "119", "zipCode": "05003" }, { "location": { "lon": 5.909275399999999, "lat": 35.6287744 }, "name": "Merouana", "id": "120", "zipCode": "05004" }, { "location": { "lon": 6.173911599999999, "lat": 35.6917406 }, "name": "Seriana", "id": "121", "zipCode": "05005" }, { "location": { "lon": 6.089103199999999, "lat": 35.1280608 }, "name": "Menaa", "id": "122", "zipCode": "05006" }, { "location": { "lon": 6.386442799999999, "lat": 35.6371149 }, "name": "El Madher", "id": "123", "zipCode": "05007" }, { "location": { "lon": 6.258836899999999, "lat": 35.5130278 }, "name": "Tazoult", "id": "124", "zipCode": "05008" }, { "location": { "lon": 5.593239, "lat": 35.5566128 }, "name": "Ngaous", "id": "125", "zipCode": "05009" }, { "location": { "lon": 5.572229699999999, "lat": 35.73196009999999 }, "name": "Guigba", "id": "126", "zipCode": "05010" }, { "location": { "lon": 6.5463156, "lat": 35.2684424 }, "name": "Inoughissen", "id": "127", "zipCode": "05011" }, { "location": { "lon": 6.3438785, "lat": 35.552203 }, "name": "Ouyoun El Assafir", "id": "128", "zipCode": "05012" }, { "location": { "lon": 6.3013432, "lat": 35.6851412 }, "name": "Djerma", "id": "129", "zipCode": "05013" }, { "location": { "lon": 5.3520876, "lat": 35.1408805 }, "name": "Bitam", "id": "130", "zipCode": "05014" }, { "location": { "lon": 5.183641, "lat": 35.3687479 }, "name": "Metkaouak", "id": "131", "zipCode": "05015" }, { "location": { "lon": 6.354516900000001, "lat": 35.3005374 }, "name": "Arris", "id": "132", "zipCode": "05016" }, { "location": { "lon": 6.471658, "lat": 34.9766508 }, "name": "Kimmel", "id": "133", "zipCode": "05017" }, { "location": { "lon": 5.624766999999999, "lat": 35.28194149999999 }, "name": "Tilatou", "id": "134", "zipCode": "05018" }, { "location": { "lon": 6.0044121, "lat": 35.8308281 }, "name": "Ain Djasser", "id": "135", "zipCode": "05019" }, { "location": { "lon": 5.7932008, "lat": 35.8411857 }, "name": "Ouled Selam", "id": "136", "zipCode": "05020" }, { "location": { "lon": 5.9621106, "lat": 35.0905115 }, "name": "Tigherghar", "id": "137", "zipCode": "05021" }, { "location": { "lon": 6.429036, "lat": 35.8088781 }, "name": "Ain Yagout", "id": "138", "zipCode": "05022" }, { "location": { "lon": 6.2269763, "lat": 35.6127845 }, "name": "Fesdis", "id": "139", "zipCode": "05023" }, { "location": { "lon": 5.593239, "lat": 35.4255853 }, "name": "Sefiane", "id": "140", "zipCode": "05024" }, { "location": { "lon": 5.6563119, "lat": 35.7280419 }, "name": "Rahbat", "id": "141", "zipCode": "05025" }, { "location": { "lon": 6.2694608, "lat": 35.1955527 }, "name": "Tighanimine", "id": "142", "zipCode": "05026" }, { "location": { "lon": 5.7826597, "lat": 35.6349128 }, "name": "Lemsane", "id": "143", "zipCode": "05027" }, { "location": { "lon": 5.8775964, "lat": 35.706563 }, "name": "Ksar Belezma", "id": "144", "zipCode": "05028" }, { "location": { "lon": 5.5407299, "lat": 35.3295911 }, "name": "Seggana", "id": "145", "zipCode": "05029" }, { "location": { "lon": 6.429036, "lat": 35.285666 }, "name": "Ichmoul", "id": "146", "zipCode": "05030" }, { "location": { "lon": 6.5143087, "lat": 35.368536 }, "name": "Foum Toub", "id": "147", "zipCode": "05031" }, { "location": { "lon": 6.0467429, "lat": 35.3928288 }, "name": "Beni Foudhala El Hakania", "id": "148", "zipCode": "05032" }, { "location": { "lon": 6.0044121, "lat": 35.6567552 }, "name": "Oued El Ma", "id": "149", "zipCode": "05033" }, { "location": { "lon": 5.751047499999999, "lat": 35.71267030000001 }, "name": "Talkhamt", "id": "150", "zipCode": "05034" }, { "location": { "lon": 6.0996978, "lat": 35.26989530000001 }, "name": "Bouzina", "id": "151", "zipCode": "05035" }, { "location": { "lon": 6.5996963, "lat": 35.6256226 }, "name": "Chemora", "id": "152", "zipCode": "05036" }, { "location": { "lon": 6.0467429, "lat": 35.5238393 }, "name": "Oued Chaaba", "id": "153", "zipCode": "05037" }, { "location": { "lon": 5.7932008, "lat": 35.5799027 }, "name": "Taxlent", "id": "154", "zipCode": "05038" }, { "location": { "lon": 5.456813299999999, "lat": 35.6391967 }, "name": "Gosbat", "id": "155", "zipCode": "05039" }, { "location": { "lon": 5.751047499999999, "lat": 35.450956 }, "name": "Ouled Aouf", "id": "156", "zipCode": "05040" }, { "location": { "lon": 5.551228, "lat": 35.4930629 }, "name": "Boumagueur", "id": "157", "zipCode": "05041" }, { "location": { "lon": 5.2893433, "lat": 35.3845934 }, "name": "Barika", "id": "158", "zipCode": "05042" }, { "location": { "lon": 5.3311652, "lat": 35.51389229999999 }, "name": "Djezzar", "id": "159", "zipCode": "05043" }, { "location": { "lon": 6.3438785, "lat": 35.1588259 }, "name": "Tkout", "id": "160", "zipCode": "05044" }, { "location": { "lon": 5.9198387, "lat": 35.3991089 }, "name": "Ain Touta", "id": "161", "zipCode": "05045" }, { "location": { "lon": 5.9198387, "lat": 35.5301294 }, "name": "Hidoussa", "id": "162", "zipCode": "05046" }, { "location": { "lon": 6.183332999999999, "lat": 35.25 }, "name": "Teniet El Abed", "id": "163", "zipCode": "05047" }, { "location": { "lon": 6.3438785, "lat": 35.4212867 }, "name": "Oued Taga", "id": "164", "zipCode": "05048" }, { "location": { "lon": 6.685198199999999, "lat": 35.5337671 }, "name": "Ouled Fadel", "id": "165", "zipCode": "05049" }, { "location": { "lon": 6.5143087, "lat": 35.4995081 }, "name": "Timgad", "id": "166", "zipCode": "05050" }, { "location": { "lon": 5.5827334, "lat": 35.6770224 }, "name": "Ras El Aioun", "id": "167", "zipCode": "05051" }, { "location": { "lon": 6.131492799999999, "lat": 35.2135627 }, "name": "Chir", "id": "168", "zipCode": "05052" }, { "location": { "lon": 5.6668306, "lat": 35.5859034 }, "name": "Ouled Si Slimane", "id": "169", "zipCode": "05053" }, { "location": { "lon": 6.1102943, "lat": 35.8037586 }, "name": "Zanat El Beida", "id": "170", "zipCode": "05054" }, { "location": { "lon": 5.1640605, "lat": 35.1270837 }, "name": "Amdoukal", "id": "171", "zipCode": "05055" }, { "location": { "lon": 5.1640605, "lat": 35.4774579 }, "name": "Ouled Ammar", "id": "172", "zipCode": "05056" }, { "location": { "lon": 5.951539899999999, "lat": 35.7790971 }, "name": "El Hassi", "id": "173", "zipCode": "05057" }, { "location": { "lon": 6.3013432, "lat": 35.7721622 }, "name": "Lazrou", "id": "174", "zipCode": "05058" }, { "location": { "lon": 6.5143087, "lat": 35.7173264 }, "name": "Boumia", "id": "175", "zipCode": "05059" }, { "location": { "lon": 6.642433, "lat": 35.7538128 }, "name": "Boulhilat", "id": "176", "zipCode": "05060" }, { "location": { "lon": 6.120892599999999, "lat": 35.3344502 }, "name": "Larbaa", "id": "177", "zipCode": "05061" }] },
    { "id": "6", "name": "B\u00e9ja\u00efa", "municipality": [{ "location": { "lon": 5.056733299999999, "lat": 36.7508896 }, "name": "Bejaia", "id": "178", "zipCode": "06001" }, { "location": { "lon": 4.903334, "lat": 36.6421159 }, "name": "Amizour", "id": "179", "zipCode": "06002" }, { "location": { "lon": 4.8647019, "lat": 36.55740470000001 }, "name": "Ferraoun", "id": "180", "zipCode": "06003" }, { "location": { "lon": 4.738101299999999, "lat": 36.72021549999999 }, "name": "Taourirt Ighil", "id": "181", "zipCode": "06004" }, { "location": { "lon": 4.5108862, "lat": 36.5135502 }, "name": "Chelata", "id": "182", "zipCode": "06005" }, { "location": { "lon": 4.667343199999999, "lat": 36.3983738 }, "name": "Tamokra", "id": "183", "zipCode": "06006" }, { "location": { "lon": 4.7749158, "lat": 36.6151583 }, "name": "Timzrit", "id": "184", "zipCode": "06007" }, { "location": { "lon": 5.3360215, "lat": 36.6256524 }, "name": "Souk El Thenine", "id": "185", "zipCode": "06008" }, { "location": { "lon": 4.710368, "lat": 36.56340700000001 }, "name": "Mcisna", "id": "186", "zipCode": "06009" }, { "location": { "lon": 4.70189, "lat": 36.6301547 }, "name": "Thinabdher", "id": "187", "zipCode": "06010" }, { "location": { "lon": 5.1550882, "lat": 36.6682721 }, "name": "Tichi", "id": "188", "zipCode": "06011" }, { "location": { "lon": 4.823662, "lat": 36.61496100000001 }, "name": "Semaoun", "id": "189", "zipCode": "06012" }, { "location": { "lon": 5.0268199, "lat": 36.5404083 }, "name": "Kendira", "id": "190", "zipCode": "06013" }, { "location": { "lon": 4.6963496, "lat": 36.6667365 }, "name": "Tifra", "id": "191", "zipCode": "06014" }, { "location": { "lon": 4.5048939, "lat": 36.4624661 }, "name": "Ighram", "id": "192", "zipCode": "06015" }, { "location": { "lon": 4.632585300000001, "lat": 36.4774626 }, "name": "Amalou", "id": "193", "zipCode": "06016" }, { "location": { "lon": 4.4702131, "lat": 36.3379865 }, "name": "Ighil Ali", "id": "194", "zipCode": "06017" }, { "location": { "lon": 4.8899903, "lat": 36.7490754 }, "name": "Toudja", "id": "196", "zipCode": "06019" }, { "location": { "lon": 5.305989600000001, "lat": 36.5646323 }, "name": "Darguina", "id": "197", "zipCode": "06020" }, { "location": { "lon": 4.7159414, "lat": 36.6122273 }, "name": "Sidi Ayad", "id": "198", "zipCode": "06021" }, { "location": { "lon": 5.2440622, "lat": 36.6369535 }, "name": "Aokas", "id": "199", "zipCode": "06022" }, { "location": { "lon": 4.810767999999999, "lat": 36.5729271 }, "name": "Beni Djellil", "id": "200", "zipCode": "06023" }, { "location": { "lon": 4.669073, "lat": 36.6942103 }, "name": "Adekar", "id": "201", "zipCode": "06024" }, { "location": { "lon": 4.5334783, "lat": 36.45901610000001 }, "name": "Akbou", "id": "202", "zipCode": "06025" }, { "location": { "lon": 4.6868666, "lat": 36.5446668 }, "name": "Seddouk", "id": "203", "zipCode": "06026" }, { "location": { "lon": 4.4079213, "lat": 36.3878041 }, "name": "Tazmalt", "id": "204", "zipCode": "06027" }, { "location": { "lon": 4.5315029, "lat": 36.3831907 }, "name": "Ait Rizine", "id": "205", "zipCode": "06028" }, { "location": { "lon": 4.6152308, "lat": 36.5956868 }, "name": "Chemini", "id": "206", "zipCode": "06029" }, { "location": { "lon": 4.6295394, "lat": 36.6114371 }, "name": "Souk Oufella", "id": "207", "zipCode": "06030" }, { "location": { "lon": 5.284117699999999, "lat": 36.5519437 }, "name": "Taskriout", "id": "208", "zipCode": "06031" }, { "location": { "lon": 4.6513509, "lat": 36.6127223 }, "name": "Tibane", "id": "209", "zipCode": "06032" }, { "location": { "lon": 5.0078451, "lat": 36.68767950000001 }, "name": "Tala Hamza", "id": "210", "zipCode": "06033" }, { "location": { "lon": 4.971239, "lat": 36.5729398 }, "name": "Barbacha", "id": "211", "zipCode": "06034" }, { "location": { "lon": 4.707061599999999, "lat": 36.839681 }, "name": "Beni Ksila", "id": "212", "zipCode": "06035" }, { "location": { "lon": 4.5334783, "lat": 36.45901610000001 }, "name": "Ouzallaguen", "id": "213", "zipCode": "06036" }, { "location": { "lon": 4.6853713, "lat": 36.4452822 }, "name": "Bouhamza", "id": "214", "zipCode": "06037" }, { "location": { "lon": 4.414018899999999, "lat": 36.4463751 }, "name": "Beni Melikeche", "id": "215", "zipCode": "06038" }, { "location": { "lon": 4.691548399999999, "lat": 36.6090172 }, "name": "Sidi Aich", "id": "216", "zipCode": "06039" }, { "location": { "lon": 4.854562899999999, "lat": 36.6803265 }, "name": "El Kseur", "id": "217", "zipCode": "06040" }, { "location": { "lon": 5.3834854, "lat": 36.6282747 }, "name": "Melbou", "id": "218", "zipCode": "06041" }, { "location": { "lon": 4.6243989, "lat": 36.6307165 }, "name": "Akfadou", "id": "219", "zipCode": "06042" }, { "location": { "lon": 4.6714261, "lat": 36.6090298 }, "name": "Leflaye", "id": "220", "zipCode": "06043" }, { "location": { "lon": 5.278127599999999, "lat": 36.4931377 }, "name": "Kherrata", "id": "221", "zipCode": "06044" }, { "location": { "lon": 5.2475518, "lat": 36.4295337 }, "name": "Draa Kaid", "id": "222", "zipCode": "06045" }, { "location": { "lon": 5.4253757, "lat": 36.5833119 }, "name": "Tamridjet", "id": "223", "zipCode": "06046" }, { "location": { "lon": 5.2302325, "lat": 36.5463433 }, "name": "Ait Smail", "id": "224", "zipCode": "06047" }, { "location": { "lon": 5.0880839, "lat": 36.6698411 }, "name": "Boukhelifa", "id": "225", "zipCode": "06048" }, { "location": { "lon": 5.2176317, "lat": 36.6134619 }, "name": "Tizi Nberber", "id": "226", "zipCode": "06049" }, { "location": { "lon": 4.7578312, "lat": 36.5070785 }, "name": "Beni Maouch", "id": "227", "zipCode": "06050" }, { "location": { "lon": 4.9795489, "lat": 36.7093915 }, "name": "Oued Ghir", "id": "228", "zipCode": "06051" }, { "location": { "lon": 4.4111706, "lat": 36.3506738 }, "name": "Boudjellil", "id": "229", "zipCode": "06052" }] },
    { "id": "7", "name": "Biskra", "municipality": [{ "location": { "lon": 5.751047499999999, "lat": 34.8370347 }, "name": "Biskra", "id": "230", "zipCode": "07001" }, { "location": { "lon": 5.772120399999999, "lat": 34.5936352 }, "name": "Oumache", "id": "231", "zipCode": "07002" }, { "location": { "lon": 5.7932008, "lat": 34.9669667 }, "name": "Branis", "id": "232", "zipCode": "07003" }, { "location": { "lon": 5.8775964, "lat": 34.87499 }, "name": "Chetma", "id": "233", "zipCode": "07004" }, { "location": { "lon": 5.1015225, "lat": 34.4466834 }, "name": "Ouled Djellal", "id": "234", "zipCode": "07005" }, { "location": { "lon": 4.645035, "lat": 33.9767317 }, "name": "Ras El Miaad", "id": "235", "zipCode": "07006" }, { "location": { "lon": 4.976654, "lat": 34.1415665 }, "name": "Besbes", "id": "236", "zipCode": "07007" }, { "location": { "lon": 4.9558696, "lat": 34.3862694 }, "name": "Sidi Khaled", "id": "237", "zipCode": "07008" }, { "location": { "lon": 5.1015225, "lat": 34.6234715 }, "name": "Doucen", "id": "238", "zipCode": "07009" }, { "location": { "lon": 4.8105955, "lat": 34.679416 }, "name": "Ech Chaiba", "id": "239", "zipCode": "07010" }, { "location": { "lon": 5.9198387, "lat": 34.7849283 }, "name": "Sidi Okba", "id": "240", "zipCode": "07011" }, { "location": { "lon": 6.0255738, "lat": 34.9337006 }, "name": "Mchouneche", "id": "241", "zipCode": "07012" }, { "location": { "lon": 6.0255738, "lat": 34.5813972 }, "name": "El Haouch", "id": "242", "zipCode": "07013" }, { "location": { "lon": 6.195132, "lat": 34.6611164 }, "name": "Ain Naga", "id": "243", "zipCode": "07014" }, { "location": { "lon": 6.5038787, "lat": 34.6878171 }, "name": "Zeribet El Oued", "id": "244", "zipCode": "07015" }, { "location": { "lon": 6.5356449, "lat": 34.4668996 }, "name": "El Feidh", "id": "245", "zipCode": "07016" }, { "location": { "lon": 5.6668306, "lat": 35.192365 }, "name": "El Kantara", "id": "246", "zipCode": "07017" }, { "location": { "lon": 5.8353837, "lat": 35.1843701 }, "name": "Ain Zaatout", "id": "247", "zipCode": "07018" }, { "location": { "lon": 5.5827334, "lat": 34.9768124 }, "name": "El Outaya", "id": "248", "zipCode": "07019" }, { "location": { "lon": 5.7089241, "lat": 35.1026843 }, "name": "Djemorah", "id": "249", "zipCode": "07020" }, { "location": { "lon": 5.3802134, "lat": 34.7291803 }, "name": "Tolga", "id": "250", "zipCode": "07021" }, { "location": { "lon": 5.3961323, "lat": 34.636809 }, "name": "Lioua", "id": "251", "zipCode": "07022" }, { "location": { "lon": 5.4253757, "lat": 34.7528735 }, "name": "Lichana", "id": "252", "zipCode": "07023" }, { "location": { "lon": 5.5407299, "lat": 34.5381104 }, "name": "Ourlal", "id": "253", "zipCode": "07024" }, { "location": { "lon": 5.624766999999999, "lat": 34.5784354 }, "name": "Mlili", "id": "254", "zipCode": "07025" }, { "location": { "lon": 5.299795899999999, "lat": 34.7583947 }, "name": "Foughala", "id": "255", "zipCode": "07026" }, { "location": { "lon": 5.3573194, "lat": 34.7062854 }, "name": "Bordj Ben Azzouz", "id": "256", "zipCode": "07027" }, { "location": { "lon": 6.2800864, "lat": 34.8328954 }, "name": "Meziraa", "id": "257", "zipCode": "07028" }, { "location": { "lon": 5.4665823, "lat": 34.7208281 }, "name": "Bouchagroun", "id": "258", "zipCode": "07029" }, { "location": { "lon": 5.4463322, "lat": 34.5533941 }, "name": "Mekhadma", "id": "259", "zipCode": "07030" }, { "location": { "lon": 5.284393, "lat": 34.705819 }, "name": "El Ghrous", "id": "260", "zipCode": "07031" }, { "location": { "lon": 5.624766999999999, "lat": 34.7989056 }, "name": "El Hadjab", "id": "261", "zipCode": "07032" }] },
    { "id": "8", "name": "B\u00e9char", "municipality": [{ "location": { "lon": -2.2143231, "lat": 31.6182492 }, "name": "Bechar", "id": "263", "zipCode": "08001" }, { "location": { "lon": -1.0598107, "lat": 29.2555013 }, "name": "Ouled Khoudir", "id": "265", "zipCode": "08003" }, { "location": { "lon": -2.945068, "lat": 31.5517416 }, "name": "Meridja", "id": "266", "zipCode": "08004" }, { "location": { "lon": -1.1269073, "lat": 29.3188506 }, "name": "Timoudi", "id": "267", "zipCode": "08005" }, { "location": { "lon": -2.2581158, "lat": 31.9330162 }, "name": "Lahmar", "id": "268", "zipCode": "08006" }, { "location": { "lon": -2.1671288, "lat": 30.1324686 }, "name": "Beni Abbes", "id": "269", "zipCode": "08007" }, { "location": { "lon": -1.604054, "lat": 29.580219 }, "name": "Beni Ikhlef", "id": "270", "zipCode": "08008" }, { "location": { "lon": -2.7375454, "lat": 30.9322468 }, "name": "Mechraa Houari B", "id": "271", "zipCode": "08009" }, { "location": { "lon": -2.4233417, "lat": 31.5569451 }, "name": "Kenedsa", "id": "272", "zipCode": "08010" }, { "location": { "lon": -2.2907524, "lat": 30.452471 }, "name": "Igli", "id": "273", "zipCode": "08011" }, { "location": { "lon": -3.2557384, "lat": 29.4055402 }, "name": "Tabalbala", "id": "274", "zipCode": "08012" }, { "location": { "lon": -2.0322172, "lat": 30.9201058 }, "name": "Taghit", "id": "275", "zipCode": "08013" }, { "location": { "lon": -1.8269573, "lat": 29.8515849 }, "name": "El Ouata", "id": "276", "zipCode": "08014" }, { "location": { "lon": -2.462651, "lat": 31.923019 }, "name": "Boukais", "id": "277", "zipCode": "08015" }, { "location": { "lon": -2.2175179, "lat": 32.023248 }, "name": "Mogheul", "id": "278", "zipCode": "08016" }, { "location": { "lon": -2.7431421, "lat": 31.0102291 }, "name": "Abadla", "id": "279", "zipCode": "08017" }, { "location": { "lon": -1.4386366, "lat": 29.4624252 }, "name": "Kerzaz", "id": "280", "zipCode": "08018" }, { "location": { "lon": -0.9725085, "lat": 29.1006615 }, "name": "Ksabi", "id": "281", "zipCode": "08019" }, { "location": { "lon": -1.9, "lat": 29.916667 }, "name": "Tamtert", "id": "282", "zipCode": "08020" }, { "location": { "lon": -1.2457898, "lat": 32.0492426 }, "name": "Beni Ounif", "id": "283", "zipCode": "08021" }] },
    { "id": "9", "name": "Blida", "municipality": [{ "location": { "lon": 2.8005677, "lat": 36.4798683 }, "name": "Blida", "id": "284", "zipCode": "09001" }, { "location": { "lon": 3.0085182, "lat": 36.5782346 }, "name": "Chebli", "id": "285", "zipCode": "09002" }, { "location": { "lon": 2.9875565, "lat": 36.5181119 }, "name": "Bouinan", "id": "286", "zipCode": "09003" }, { "location": { "lon": 2.7680247, "lat": 36.5665832 }, "name": "Oued El Alleug", "id": "287", "zipCode": "09004" }, { "location": { "lon": 2.8726747, "lat": 36.5047206 }, "name": "Ouled Yaich", "id": "288", "zipCode": "09007" }, { "location": { "lon": 2.9076094, "lat": 36.4336226 }, "name": "Chrea", "id": "289", "zipCode": "09008" }, { "location": { "lon": 2.6090043, "lat": 36.4404969 }, "name": "El Affroun", "id": "290", "zipCode": "09010" }, { "location": { "lon": 2.728219, "lat": 36.4594664 }, "name": "Chiffa", "id": "291", "zipCode": "09011" }, { "location": { "lon": 2.9975593, "lat": 36.4205919 }, "name": "Hammam Melouane", "id": "292", "zipCode": "09012" }, { "location": { "lon": 2.847737, "lat": 36.6078803 }, "name": "Ben Khlil", "id": "293", "zipCode": "09013" }, { "location": { "lon": 2.9076094, "lat": 36.4984753 }, "name": "Soumaa", "id": "294", "zipCode": "09014" }, { "location": { "lon": 2.6785092, "lat": 36.4713985 }, "name": "Mouzaia", "id": "295", "zipCode": "09016" }, { "location": { "lon": 3.2483058, "lat": 36.5329164 }, "name": "Souhane", "id": "296", "zipCode": "09017" }, { "location": { "lon": 3.2281983, "lat": 36.6197872 }, "name": "Meftah", "id": "297", "zipCode": "09018" }, { "location": { "lon": 3.1277854, "lat": 36.5145296 }, "name": "Ouled Selama", "id": "298", "zipCode": "09019" }, { "location": { "lon": 2.9076094, "lat": 36.5848591 }, "name": "Boufarik", "id": "299", "zipCode": "09020" }, { "location": { "lon": 3.1578875, "lat": 36.5893036 }, "name": "Larbaa", "id": "300", "zipCode": "09021" }, { "location": { "lon": 2.5495112, "lat": 36.4201457 }, "name": "Oued Djer", "id": "301", "zipCode": "09022" }, { "location": { "lon": 2.8277963, "lat": 36.5435922 }, "name": "Beni Tamou", "id": "302", "zipCode": "09023" }, { "location": { "lon": 2.797901, "lat": 36.4254203 }, "name": "Bouarfa", "id": "303", "zipCode": "09024" }, { "location": { "lon": 2.8527235, "lat": 36.5268016 }, "name": "Beni Mered", "id": "304", "zipCode": "09025" }, { "location": { "lon": 3.1077277, "lat": 36.47183770000001 }, "name": "Bougara", "id": "305", "zipCode": "09026" }, { "location": { "lon": 2.8826534, "lat": 36.4828707 }, "name": "Guerrouaou", "id": "306", "zipCode": "09027" }, { "location": { "lon": 2.6487087, "lat": 36.3963569 }, "name": "Ain Romana", "id": "307", "zipCode": "09028" }, { "location": { "lon": 3.2633918, "lat": 36.5810764 }, "name": "Djebabra", "id": "308", "zipCode": "09029" }] },
    { "id": "10", "name": "Bouira", "municipality": [{ "location": { "lon": 3.8962348, "lat": 36.37763 }, "name": "Bouira", "id": "309", "zipCode": "10001" }, { "location": { "lon": 4.0388918, "lat": 36.357569 }, "name": "El Asnam", "id": "310", "zipCode": "10002" }, { "location": { "lon": 3.4296446, "lat": 36.4630499 }, "name": "Guerrouma", "id": "311", "zipCode": "10003" }, { "location": { "lon": 3.637535, "lat": 36.3882249 }, "name": "Souk El Khemis", "id": "312", "zipCode": "10004" }, { "location": { "lon": 3.6927531, "lat": 36.5200245 }, "name": "Kadiria", "id": "313", "zipCode": "10005" }, { "location": { "lon": 4.2128337, "lat": 36.2541817 }, "name": "Hanif", "id": "314", "zipCode": "10006" }, { "location": { "lon": 3.7545828, "lat": 35.9997826 }, "name": "Dirah", "id": "315", "zipCode": "10007" }, { "location": { "lon": 3.8757119, "lat": 36.4494403 }, "name": "Ait Laaziz", "id": "316", "zipCode": "10008" }, { "location": { "lon": 3.9572374, "lat": 36.4251625 }, "name": "Taghzout", "id": "317", "zipCode": "10009" }, { "location": { "lon": 3.6319131, "lat": 36.2190042 }, "name": "Raouraoua", "id": "318", "zipCode": "10010" }, { "location": { "lon": 4.0491077, "lat": 36.0863547 }, "name": "Mezdour", "id": "319", "zipCode": "10011" }, { "location": { "lon": 4.0491077, "lat": 36.4328965 }, "name": "Haizer", "id": "320", "zipCode": "10012" }, { "location": { "lon": 3.5913939, "lat": 36.5662811 }, "name": "Lakhdaria", "id": "321", "zipCode": "10013" }, { "location": { "lon": 3.8693481, "lat": 36.4428933 }, "name": "Maala", "id": "322", "zipCode": "10014" }, { "location": { "lon": 3.8153696, "lat": 36.2199413 }, "name": "El Hachimia", "id": "323", "zipCode": "10015" }, { "location": { "lon": 3.7739869, "lat": 36.495896 }, "name": "Aomar", "id": "324", "zipCode": "10016" }, { "location": { "lon": 4.3256918, "lat": 36.3691831 }, "name": "Chorfa", "id": "325", "zipCode": "10017" }, { "location": { "lon": 3.9736961, "lat": 36.0817064 }, "name": "Bordj Oukhriss", "id": "326", "zipCode": "10018" }, { "location": { "lon": 4.1616143, "lat": 36.3749965 }, "name": "El Adjiba", "id": "327", "zipCode": "10019" }, { "location": { "lon": 3.7801961, "lat": 36.0914921 }, "name": "El Hakimia", "id": "328", "zipCode": "10020" }, { "location": { "lon": 3.6015207, "lat": 36.3174072 }, "name": "El Khebouzia", "id": "329", "zipCode": "10021" }, { "location": { "lon": 4.0491077, "lat": 36.259821 }, "name": "Ahl El Ksar", "id": "330", "zipCode": "10022" }, { "location": { "lon": 3.4902391, "lat": 36.5692761 }, "name": "Bouderbala", "id": "331", "zipCode": "10023" }, { "location": { "lon": 3.5306765, "lat": 36.4817207 }, "name": "Zbarbar", "id": "332", "zipCode": "10024" }, { "location": { "lon": 3.7943157, "lat": 36.3655637 }, "name": "Ain El Hadjar", "id": "333", "zipCode": "10025" }, { "location": { "lon": 3.7130493, "lat": 36.454596 }, "name": "Djebahia", "id": "334", "zipCode": "10026" }, { "location": { "lon": 4.346237299999999, "lat": 36.4332801 }, "name": "Aghbalou", "id": "335", "zipCode": "10027" }, { "location": { "lon": 3.9470396, "lat": 35.9811329 }, "name": "Taguedit", "id": "336", "zipCode": "10028" }, { "location": { "lon": 3.8146526, "lat": 36.4081721 }, "name": "Ain Turk", "id": "337", "zipCode": "10029" }, { "location": { "lon": 4.2538452, "lat": 36.4257962 }, "name": "Saharidj", "id": "338", "zipCode": "10030" }, { "location": { "lon": 3.5765977, "lat": 36.1305919 }, "name": "Dechmia", "id": "339", "zipCode": "10031" }, { "location": { "lon": 3.4619838, "lat": 36.0738504 }, "name": "Ridane", "id": "340", "zipCode": "10032" }, { "location": { "lon": 4.0899911, "lat": 36.3450193 }, "name": "Bechloul", "id": "341", "zipCode": "10033" }, { "location": { "lon": 3.3691241, "lat": 36.5295755 }, "name": "Boukram", "id": "342", "zipCode": "10034" }, { "location": { "lon": 3.7232005, "lat": 36.4002383 }, "name": "Ain Bessam", "id": "343", "zipCode": "10035" }, { "location": { "lon": 3.5711466, "lat": 36.2641708 }, "name": "Bir Ghbalou", "id": "344", "zipCode": "10036" }, { "location": { "lon": 4.264103, "lat": 36.3713916 }, "name": "Mchedallah", "id": "345", "zipCode": "10037" }, { "location": { "lon": 3.6901552, "lat": 36.1492231 }, "name": "Sour El Ghozlane", "id": "346", "zipCode": "10038" }, { "location": { "lon": 3.551855, "lat": 36.0335667 }, "name": "Maamora", "id": "347", "zipCode": "10039" }, { "location": { "lon": 4.0899911, "lat": 36.1717506 }, "name": "Ouled Rached", "id": "348", "zipCode": "10040" }, { "location": { "lon": 3.753666299999999, "lat": 36.3019154 }, "name": "Ain Laloui", "id": "349", "zipCode": "10041" }, { "location": { "lon": 3.8451731, "lat": 35.9191859 }, "name": "Hadjera Zerga", "id": "350", "zipCode": "10042" }, { "location": { "lon": 4.2948884, "lat": 36.2945728 }, "name": "Ath Mansour", "id": "351", "zipCode": "10043" }, { "location": { "lon": 3.6116494, "lat": 36.4360848 }, "name": "El Mokrani", "id": "352", "zipCode": "10044" }, { "location": { "lon": 3.9266502, "lat": 36.2638925 }, "name": "Oued El Berdi", "id": "353", "zipCode": "10045" }] },
    { "id": "11", "name": "Tamanrasset", "municipality": [{ "location": { "lon": 5.5258107, "lat": 22.7888209 }, "name": "Tamanrasset", "id": "354", "zipCode": "11001" }, { "location": { "lon": 4.0695454, "lat": 22.1877766 }, "name": "Abalessa", "id": "355", "zipCode": "11002" }, { "location": { "lon": 1.9050391, "lat": 27.1077421 }, "name": "In Ghar", "id": "356", "zipCode": "11003" }, { "location": { "lon": 5.7693847, "lat": 19.5708544 }, "name": "In Guezzam", "id": "357", "zipCode": "11004" }, { "location": { "lon": 5.9343664, "lat": 23.8173973 }, "name": "Idles", "id": "358", "zipCode": "11005" }, { "location": { "lon": 3.4195527, "lat": 20.6784913 }, "name": "Tinzaouatine", "id": "360", "zipCode": "11007" }, { "location": { "lon": 2.4851463, "lat": 27.1927769 }, "name": "In Salah", "id": "361", "zipCode": "11008" }, { "location": { "lon": 3.4195527, "lat": 24.4857286 }, "name": "In Amguel", "id": "362", "zipCode": "11009" }, { "location": { "lon": 2.8452439, "lat": 27.3592301 }, "name": "Foggaret Ezzaouia", "id": "363", "zipCode": "11010" }] },
    { "id": "12", "name": "T\u00e9bessa", "municipality": [{ "location": { "lon": 8.101092000000001, "lat": 35.4142494 }, "name": "Tebessa", "id": "364", "zipCode": "12001" }, { "location": { "lon": 8.057429899999999, "lat": 34.7610886 }, "name": "Bir El Ater", "id": "365", "zipCode": "12002" }, { "location": { "lon": 7.7471025, "lat": 35.2684831 }, "name": "Cheria", "id": "366", "zipCode": "12003" }, { "location": { "lon": 7.885766500000001, "lat": 35.8658056 }, "name": "El Aouinet", "id": "368", "zipCode": "12005" }, { "location": { "lon": 8.2801065, "lat": 35.2917478 }, "name": "Lahouidjbet", "id": "369", "zipCode": "12006" }, { "location": { "lon": 8.2076282, "lat": 34.9565856 }, "name": "Safsaf El Ouesra", "id": "370", "zipCode": "12007" }, { "location": { "lon": 7.953837799999999, "lat": 35.4512851 }, "name": "Hammamet", "id": "371", "zipCode": "12008" }, { "location": { "lon": 7.5193093, "lat": 34.4820138 }, "name": "Negrine", "id": "372", "zipCode": "12009" }, { "location": { "lon": 7.8096037, "lat": 35.3708248 }, "name": "Bir El Mokadem", "id": "373", "zipCode": "12010" }, { "location": { "lon": 8.3225325, "lat": 35.4998244 }, "name": "El Kouif", "id": "374", "zipCode": "12011" }, { "location": { "lon": 8.0110677, "lat": 35.6676901 }, "name": "Morsott", "id": "375", "zipCode": "12012" }, { "location": { "lon": 7.466666999999999, "lat": 35.183333 }, "name": "El Ogla", "id": "376", "zipCode": "12013" }, { "location": { "lon": 8.25, "lat": 35.366667 }, "name": "Bekkaria", "id": "380", "zipCode": "12017" }, { "location": { "lon": 8.0328815, "lat": 35.7476345 }, "name": "Boukhadra", "id": "381", "zipCode": "12018" }, { "location": { "lon": 8.1393179, "lat": 35.9489963 }, "name": "Ouenza", "id": "382", "zipCode": "12019" }, { "location": { "lon": 8.1693666, "lat": 35.2051832 }, "name": "El Ma El Biodh", "id": "383", "zipCode": "12020" }, { "location": { "lon": 8.300632199999999, "lat": 35.0104461 }, "name": "Oum Ali", "id": "384", "zipCode": "12021" }, { "location": { "lon": 7.766118799999998, "lat": 35.1170207 }, "name": "Thlidjene", "id": "385", "zipCode": "12022" }, { "location": { "lon": 8.266667, "lat": 35.633333 }, "name": "Ain Zerga", "id": "386", "zipCode": "12023" }, { "location": { "lon": 8.2295009, "lat": 35.7939476 }, "name": "El Meridj", "id": "387", "zipCode": "12024" }, { "location": { "lon": 7.4746519, "lat": 35.3497731 }, "name": "Bedjene", "id": "389", "zipCode": "12026" }, { "location": { "lon": 7.408395799999999, "lat": 34.5576609 }, "name": "Ferkane", "id": "391", "zipCode": "12028" }] },
    { "id": "13", "name": "Tlemcen", "municipality": [{ "location": { "lon": -1.3180042, "lat": 34.88840620000001 }, "name": "Tlemcen", "id": "392", "zipCode": "13001" }, { "location": { "lon": -1.4338047, "lat": 34.8650364 }, "name": "Beni Mester", "id": "393", "zipCode": "13002" }, { "location": { "lon": -0.9557867, "lat": 34.92211040000001 }, "name": "Ain Tallout", "id": "394", "zipCode": "13003" }, { "location": { "lon": -1.4289734, "lat": 35.0579657 }, "name": "Remchi", "id": "395", "zipCode": "13004" }, { "location": { "lon": -1.2927151, "lat": 35.1158895 }, "name": "El Fehoul", "id": "396", "zipCode": "13005" }, { "location": { "lon": -1.5281253, "lat": 34.8280257 }, "name": "Sabra", "id": "397", "zipCode": "13006" }, { "location": { "lon": -1.8562218, "lat": 35.0962252 }, "name": "Ghazaouet", "id": "398", "zipCode": "13007" }, { "location": { "lon": -1.9172519, "lat": 34.9218192 }, "name": "Souani", "id": "399", "zipCode": "13008" }, { "location": { "lon": -1.8123324, "lat": 34.9592459 }, "name": "Djebala", "id": "400", "zipCode": "13009" }, { "location": { "lon": -1.1520965, "lat": 34.6332195 }, "name": "El Gor", "id": "401", "zipCode": "13010" }, { "location": { "lon": -1.1714782, "lat": 34.8290775 }, "name": "Oued Chouly", "id": "402", "zipCode": "13011" }, { "location": { "lon": -1.2349683, "lat": 34.8768632 }, "name": "Ain Fezza", "id": "403", "zipCode": "13012" }, { "location": { "lon": -1.0322845, "lat": 34.9049444 }, "name": "Ouled Mimoun", "id": "404", "zipCode": "13013" }, { "location": { "lon": -1.375051, "lat": 35.0477582 }, "name": "Ain Youcef", "id": "406", "zipCode": "13015" }, { "location": { "lon": -1.4479374, "lat": 35.0123044 }, "name": "Zenata", "id": "407", "zipCode": "13016" }, { "location": { "lon": -1.5450766, "lat": 34.6593136 }, "name": "Beni Snous", "id": "408", "zipCode": "13017" }, { "location": { "lon": -2.029768, "lat": 34.9640856 }, "name": "Bab El Assa", "id": "409", "zipCode": "13018" }, { "location": { "lon": -1.5693045, "lat": 35.0177005 }, "name": "Fellaoucene", "id": "411", "zipCode": "13020" }, { "location": { "lon": -1.4746046, "lat": 34.6794874 }, "name": "Azails", "id": "412", "zipCode": "13021" }, { "location": { "lon": -1.3601865, "lat": 35.1563994 }, "name": "Sebbaa Chioukh", "id": "413", "zipCode": "13022" }, { "location": { "lon": -1.2289576, "lat": 35.0739077 }, "name": "Bensekrane", "id": "415", "zipCode": "13024" }, { "location": { "lon": -0.9313136, "lat": 35.0276866 }, "name": "Ain Nehala", "id": "416", "zipCode": "13025" }, { "location": { "lon": -1.3710402, "lat": 34.9484714 }, "name": "Hennaya", "id": "417", "zipCode": "13026" }, { "location": { "lon": -1.7349661, "lat": 34.8534497 }, "name": "Maghnia", "id": "418", "zipCode": "13027" }, { "location": { "lon": -1.6444975, "lat": 34.8927177 }, "name": "Hammam Boughrara", "id": "419", "zipCode": "13028" }, { "location": { "lon": -1.8952713, "lat": 35.0405953 }, "name": "Souahlia", "id": "420", "zipCode": "13029" }, { "location": { "lon": -2.0518154, "lat": 35.0160389 }, "name": "Msirda Fouaga", "id": "421", "zipCode": "13030" }, { "location": { "lon": -1.2554112, "lat": 34.2190891 }, "name": "El Aricha", "id": "423", "zipCode": "13032" }, { "location": { "lon": -2.002836, "lat": 35.0168536 }, "name": "Souk Thlata", "id": "424", "zipCode": "13033" }, { "location": { "lon": -1.1329034, "lat": 35.0638308 }, "name": "Sidi Abdelli", "id": "425", "zipCode": "13034" }, { "location": { "lon": -1.332462, "lat": 34.6396882 }, "name": "Sebdou", "id": "426", "zipCode": "13035" }, { "location": { "lon": -1.5559775, "lat": 35.082551 }, "name": "Beni Ouarsous", "id": "427", "zipCode": "13036" }, { "location": { "lon": -1.6384287, "lat": 34.7755299 }, "name": "Sidi Medjahed", "id": "428", "zipCode": "13037" }, { "location": { "lon": -1.7526648, "lat": 34.6496059 }, "name": "Beni Boussaid", "id": "429", "zipCode": "13038" }, { "location": { "lon": -2.1352039, "lat": 35.0531381 }, "name": "Marsa Ben Mhidi", "id": "430", "zipCode": "13039" }, { "location": { "lon": -1.7490143, "lat": 35.0097474 }, "name": "Nedroma", "id": "431", "zipCode": "13040" }, { "location": { "lon": -1.5668811, "lat": 34.4458733 }, "name": "Sidi Djillali", "id": "432", "zipCode": "13041" }, { "location": { "lon": -1.5123907, "lat": 34.7108589 }, "name": "Beni Bahdel", "id": "433", "zipCode": "13042" }, { "location": { "lon": -1.6493532, "lat": 35.1789336 }, "name": "Honaine", "id": "435", "zipCode": "13044" }, { "location": { "lon": -1.8391485, "lat": 35.049712 }, "name": "Tianet", "id": "436", "zipCode": "13045" }, { "location": { "lon": -1.4978716, "lat": 34.9621354 }, "name": "Ouled Riyah", "id": "437", "zipCode": "13046" }, { "location": { "lon": -1.571728, "lat": 34.7777862 }, "name": "Bouhlou", "id": "438", "zipCode": "13047" }, { "location": { "lon": -1.5565831, "lat": 35.1725987 }, "name": "Souk El Khemis", "id": "439", "zipCode": "13048" }, { "location": { "lon": -1.3879292, "lat": 34.7081886 }, "name": "Ain Ghoraba", "id": "440", "zipCode": "13049" }, { "location": { "lon": -1.2975309, "lat": 34.92033420000001 }, "name": "Chetouane", "id": "441", "zipCode": "13050" }, { "location": { "lon": -1.3565692, "lat": 34.8659187 }, "name": "Mansourah", "id": "442", "zipCode": "13051" }, { "location": { "lon": -1.6784986, "lat": 35.0300112 }, "name": "Ain Kebira", "id": "444", "zipCode": "13053" }] },
    { "id": "14", "name": "Tiaret", "municipality": [{ "location": { "lon": 1.3220322, "lat": 35.3673553 }, "name": "Tiaret", "id": "445", "zipCode": "14001" }, { "location": { "lon": 1.2049233, "lat": 35.1731543 }, "name": "Medroussa", "id": "446", "zipCode": "14002" }, { "location": { "lon": 1.5136009, "lat": 35.3563885 }, "name": "Ain Bouchekif", "id": "447", "zipCode": "14003" }, { "location": { "lon": 1.2253693, "lat": 35.56373689999999 }, "name": "Sidi Ali Mellal", "id": "448", "zipCode": "14004" }, { "location": { "lon": 1.6651379, "lat": 35.3530331 }, "name": "Ain Zarit", "id": "449", "zipCode": "14005" }, { "location": { "lon": 1.5450766, "lat": 34.8471273 }, "name": "Ain Deheb", "id": "450", "zipCode": "14006" }, { "location": { "lon": 0.9777269000000001, "lat": 35.2393277 }, "name": "Sidi Bakhti", "id": "451", "zipCode": "14007" }, { "location": { "lon": 1.2433848, "lat": 34.8919466 }, "name": "Medrissa", "id": "452", "zipCode": "14008" }, { "location": { "lon": 2.3172324, "lat": 34.9121227 }, "name": "Zmalet El Emir Aek", "id": "453", "zipCode": "14009" }, { "location": { "lon": 1.2337661, "lat": 35.2497888 }, "name": "Mellakou", "id": "456", "zipCode": "14012" }, { "location": { "lon": 1.4759356, "lat": 35.4157148 }, "name": "Dahmouni", "id": "457", "zipCode": "14013" }, { "location": { "lon": 1.0227145, "lat": 35.5313694 }, "name": "Rahouia", "id": "458", "zipCode": "14014" }, { "location": { "lon": 1.7587496, "lat": 35.4270876 }, "name": "Mahdia", "id": "459", "zipCode": "14015" }, { "location": { "lon": 1.4966619, "lat": 35.1781601 }, "name": "Sougueur", "id": "460", "zipCode": "14016" }, { "location": { "lon": 0.8794310999999999, "lat": 35.0604194 }, "name": "Ain El Hadid", "id": "462", "zipCode": "14018" }, { "location": { "lon": 1.4785205, "lat": 35.0917694 }, "name": "Naima", "id": "464", "zipCode": "14020" }, { "location": { "lon": 1.3270326, "lat": 35.3632425 }, "name": "Meghila", "id": "465", "zipCode": "14021" }, { "location": { "lon": 1.2578169, "lat": 35.39221 }, "name": "Guertoufa", "id": "466", "zipCode": "14022" }, { "location": { "lon": 1.5184418, "lat": 35.4714207 }, "name": "Sidi Hosni", "id": "467", "zipCode": "14023" }, { "location": { "lon": 0.8514301, "lat": 35.4443866 }, "name": "Djillali Ben Amar", "id": "468", "zipCode": "14024" }, { "location": { "lon": 1.6020337, "lat": 35.4580212 }, "name": "Sebaine", "id": "469", "zipCode": "14025" }, { "location": { "lon": 1.2758641, "lat": 35.1133168 }, "name": "Tousnina", "id": "470", "zipCode": "14026" }, { "location": { "lon": 1.0538252, "lat": 35.0617882 }, "name": "Frenda", "id": "471", "zipCode": "14027" }, { "location": { "lon": 1.0777723, "lat": 34.9238511 }, "name": "Ain Kermes", "id": "472", "zipCode": "14028" }, { "location": { "lon": 2.3172324, "lat": 35.2202319 }, "name": "Ksar Chellala", "id": "473", "zipCode": "14029" }, { "location": { "lon": 1.9710284, "lat": 35.4101241 }, "name": "Rechaiga", "id": "474", "zipCode": "14030" }, { "location": { "lon": 1.2283566, "lat": 35.3356113 }, "name": "Tagdemt", "id": "476", "zipCode": "14032" }, { "location": { "lon": 1.26705, "lat": 35.51192899999999 }, "name": "Oued Lilli", "id": "477", "zipCode": "14033" }, { "location": { "lon": 1.8733017, "lat": 35.460979 }, "name": "Hamadia", "id": "479", "zipCode": "14035" }, { "location": { "lon": 1.3047556, "lat": 34.8982002 }, "name": "Chehaima", "id": "480", "zipCode": "14036" }, { "location": { "lon": 0.6844213, "lat": 35.1056992 }, "name": "Takhemaret", "id": "481", "zipCode": "14037" }, { "location": { "lon": 1.1329034, "lat": 34.7992061 }, "name": "Sidi Abderrahmane", "id": "482", "zipCode": "14038" }, { "location": { "lon": 2.4826726, "lat": 35.2581419 }, "name": "Serghine", "id": "483", "zipCode": "14039" }, { "location": { "lon": 1.961246, "lat": 35.5581085 }, "name": "Bougara", "id": "484", "zipCode": "14040" }, { "location": { "lon": 1.266238, "lat": 35.5824151 }, "name": "Tidda", "id": "486", "zipCode": "14042" }] },
    { "id": "15", "name": "Tizi Ouzou", "municipality": [{ "location": { "lon": 4.0593255, "lat": 36.7021906 }, "name": "Tizi Ouzou", "id": "487", "zipCode": "15001" }, { "location": { "lon": 4.2846246, "lat": 36.5650202 }, "name": "Ain El Hammam", "id": "488", "zipCode": "15002" }, { "location": { "lon": 4.3051542, "lat": 36.4995515 }, "name": "Akbil", "id": "489", "zipCode": "15003" }, { "location": { "lon": 4.3177067, "lat": 36.7584263 }, "name": "Freha", "id": "490", "zipCode": "15004" }, { "location": { "lon": 4.346237299999999, "lat": 36.6705552 }, "name": "Souamaa", "id": "491", "zipCode": "15005" }, { "location": { "lon": 4.0049301, "lat": 36.5447993 }, "name": "Mechtrass", "id": "492", "zipCode": "15006" }, { "location": { "lon": 4.1496093, "lat": 36.6613077 }, "name": "Irdjen", "id": "493", "zipCode": "15007" }, { "location": { "lon": 4.2653984, "lat": 36.8024218 }, "name": "Timizart", "id": "494", "zipCode": "15008" }, { "location": { "lon": 4.0624151, "lat": 36.7920474 }, "name": "Makouda", "id": "495", "zipCode": "15009" }, { "location": { "lon": 3.8146526, "lat": 36.5593675 }, "name": "Draa El Mizan", "id": "496", "zipCode": "15010" }, { "location": { "lon": 3.7760446, "lat": 36.5888512 }, "name": "Tizi Ghenif", "id": "497", "zipCode": "15011" }, { "location": { "lon": 3.9364126, "lat": 36.4995751 }, "name": "Bounouh", "id": "498", "zipCode": "15012" }, { "location": { "lon": 4.5255955, "lat": 36.8221623 }, "name": "Ait Chaffaa", "id": "499", "zipCode": "15013" }, { "location": { "lon": 3.8757119, "lat": 36.49264429999999 }, "name": "Frikat", "id": "500", "zipCode": "15014" }, { "location": { "lon": 4.0848789, "lat": 36.6636279 }, "name": "Beni Aissi", "id": "501", "zipCode": "15015" }, { "location": { "lon": 4.039156, "lat": 36.636975 }, "name": "Beni Zmenzer", "id": "502", "zipCode": "15016" }, { "location": { "lon": 4.3667907, "lat": 36.5404761 }, "name": "Iferhounene", "id": "503", "zipCode": "15017" }, { "location": { "lon": 4.3667907, "lat": 36.7343859 }, "name": "Azazga", "id": "504", "zipCode": "15018" }, { "location": { "lon": 4.442432, "lat": 36.5805668 }, "name": "Iloula Oumalou", "id": "505", "zipCode": "15019" }, { "location": { "lon": 4.4386329, "lat": 36.7339217 }, "name": "Yakouren", "id": "506", "zipCode": "15020" }, { "location": { "lon": 4.204093299999999, "lat": 36.63729319999999 }, "name": "Larba Nait Irathen", "id": "507", "zipCode": "15021" }, { "location": { "lon": 4.2087286, "lat": 36.6799518 }, "name": "Tizi Rached", "id": "508", "zipCode": "15022" }, { "location": { "lon": 4.583078899999999, "lat": 36.8015396 }, "name": "Zekri", "id": "509", "zipCode": "15023" }, { "location": { "lon": 4.175088, "lat": 36.7700939 }, "name": "Ouaguenoun", "id": "510", "zipCode": "15024" }, { "location": { "lon": 3.894797499999999, "lat": 36.5504491 }, "name": "Ain Zaouia", "id": "511", "zipCode": "15025" }, { "location": { "lon": 3.7790684, "lat": 36.6305931 }, "name": "Mkira", "id": "512", "zipCode": "15026" }, { "location": { "lon": 4.3256918, "lat": 36.6066637 }, "name": "Ait Yahia", "id": "513", "zipCode": "15027" }, { "location": { "lon": 4.1121615, "lat": 36.6077811 }, "name": "Ait Mahmoud", "id": "514", "zipCode": "15028" }, { "location": { "lon": 3.9572374, "lat": 36.6194358 }, "name": "Maatka", "id": "515", "zipCode": "15029" }, { "location": { "lon": 4.1820961, "lat": 36.4823272 }, "name": "Ait Boumehdi", "id": "516", "zipCode": "15030" }, { "location": { "lon": 4.3423883, "lat": 36.5389695 }, "name": "Abi Youcef", "id": "517", "zipCode": "15031" }, { "location": { "lon": 4.0815246, "lat": 36.62054 }, "name": "Beni Douala", "id": "518", "zipCode": "15032" }, { "location": { "lon": 4.3946198, "lat": 36.5161852 }, "name": "Illilten", "id": "519", "zipCode": "15033" }, { "location": { "lon": 4.4725912, "lat": 36.6141303 }, "name": "Bouzguen", "id": "520", "zipCode": "15034" }, { "location": { "lon": 4.2435893, "lat": 36.6096083 }, "name": "Ait Aggouacha", "id": "521", "zipCode": "15035" }, { "location": { "lon": 4.0886525, "lat": 36.5559718 }, "name": "Ouadhia", "id": "522", "zipCode": "15036" }, { "location": { "lon": 4.4240151, "lat": 36.8895311 }, "name": "Azzefoun", "id": "523", "zipCode": "15037" }, { "location": { "lon": 4.1267837, "lat": 36.8905856 }, "name": "Tigzirt", "id": "524", "zipCode": "15038" }, { "location": { "lon": 4.1155596, "lat": 36.7486964 }, "name": "Ait Aissa Mimoun", "id": "525", "zipCode": "15039" }, { "location": { "lon": 3.9558753, "lat": 36.5410545 }, "name": "Boghni", "id": "526", "zipCode": "15040" }, { "location": { "lon": 4.413693299999999, "lat": 36.6717744 }, "name": "Ifigha", "id": "527", "zipCode": "15041" }, { "location": { "lon": 4.2282093, "lat": 36.6586389 }, "name": "Ait Oumalou", "id": "528", "zipCode": "15042" }, { "location": { "lon": 3.9572785, "lat": 36.6756079 }, "name": "Tirmitine", "id": "529", "zipCode": "15043" }, { "location": { "lon": 4.4490836, "lat": 36.817363 }, "name": "Akerrou", "id": "530", "zipCode": "15044" }, { "location": { "lon": 4.2794935, "lat": 36.5274507 }, "name": "Yatafen", "id": "531", "zipCode": "15045" }, { "location": { "lon": 4.5025157, "lat": 36.56280599999999 }, "name": "Beni Ziki", "id": "532", "zipCode": "15046" }, { "location": { "lon": 3.9652509, "lat": 36.7309604 }, "name": "Draa Ben Khedda", "id": "533", "zipCode": "15047" }, { "location": { "lon": 4.2179584, "lat": 36.5188468 }, "name": "Ouacif", "id": "534", "zipCode": "15048" }, { "location": { "lon": 4.5418141, "lat": 36.6740411 }, "name": "Idjeur", "id": "535", "zipCode": "15049" }, { "location": { "lon": 4.264103, "lat": 36.6735171 }, "name": "Mekla", "id": "536", "zipCode": "15050" }, { "location": { "lon": 4.0388918, "lat": 36.5735762 }, "name": "Tizi Nthlata", "id": "537", "zipCode": "15051" }, { "location": { "lon": 4.1820961, "lat": 36.5686516 }, "name": "Beni Yenni", "id": "538", "zipCode": "15052" }, { "location": { "lon": 4.346237299999999, "lat": 36.8211575 }, "name": "Aghrib", "id": "539", "zipCode": "15053" }, { "location": { "lon": 4.2230836, "lat": 36.86855930000001 }, "name": "Iflissen", "id": "540", "zipCode": "15054" }, { "location": { "lon": 4.1411406, "lat": 36.8069616 }, "name": "Boudjima", "id": "541", "zipCode": "15055" }, { "location": { "lon": 3.8757119, "lat": 36.6436636 }, "name": "Ait Yahia Moussa", "id": "542", "zipCode": "15056" }, { "location": { "lon": 4.003152099999999, "lat": 36.5909543 }, "name": "Souk El Thenine", "id": "543", "zipCode": "15057" }, { "location": { "lon": 4.3102879, "lat": 36.6664742 }, "name": "Ait Khelil", "id": "544", "zipCode": "15058" }, { "location": { "lon": 3.9980485, "lat": 36.7688293 }, "name": "Sidi Naamane", "id": "545", "zipCode": "15059" }, { "location": { "lon": 4.2435893, "lat": 36.5233354 }, "name": "Iboudraren", "id": "546", "zipCode": "15060" }, { "location": { "lon": 4.079767299999999, "lat": 36.852067 }, "name": "Mizrana", "id": "548", "zipCode": "15062" }, { "location": { "lon": 4.3924936, "lat": 36.5772781 }, "name": "Imsouhal", "id": "549", "zipCode": "15063" }, { "location": { "lon": 3.8960811, "lat": 36.70763000000001 }, "name": "Tadmait", "id": "550", "zipCode": "15064" }, { "location": { "lon": 4.0593255, "lat": 36.5081471 }, "name": "Ait Bouadou", "id": "551", "zipCode": "15065" }, { "location": { "lon": 4.013361, "lat": 36.5043008 }, "name": "Assi Youcef", "id": "552", "zipCode": "15066" }, { "location": { "lon": 4.1616143, "lat": 36.5262163 }, "name": "Ait Toudert", "id": "553", "zipCode": "15067" }] },
    { "id": "16", "name": "Alger", "municipality": [{ "location": { "lon": 3.0551159, "lat": 36.7724841 }, "name": "Alger Centre", "id": "554", "zipCode": "16001" }, { "location": { "lon": 3.0587561, "lat": 36.753768 }, "name": "Sidi Mhamed", "id": "555", "zipCode": "16002" }, { "location": { "lon": 3.0688896, "lat": 36.7411788 }, "name": "El Madania", "id": "556", "zipCode": "16003" }, { "location": { "lon": 3.0781232, "lat": 36.7509629 }, "name": "Hamma Anassers", "id": "557", "zipCode": "16004" }, { "location": { "lon": 3.0513601, "lat": 36.7927594 }, "name": "Bab El Oued", "id": "558", "zipCode": "16005" }, { "location": { "lon": 3.0433403, "lat": 36.8037134 }, "name": "Bologhine Ibn Ziri", "id": "559", "zipCode": "16006" }, { "location": { "lon": 3.058872, "lat": 36.7844961 }, "name": "Casbah", "id": "560", "zipCode": "16007" }, { "location": { "lon": 3.0400945, "lat": 36.7836306 }, "name": "Oued Koriche", "id": "561", "zipCode": "16008" }, { "location": { "lon": 3.0503737, "lat": 36.7353493 }, "name": "Bir Mourad Rais", "id": "562", "zipCode": "16009" }, { "location": { "lon": 3.0309946, "lat": 36.7690092 }, "name": "El Biar", "id": "563", "zipCode": "16010" }, { "location": { "lon": 3.0125674, "lat": 36.7816379 }, "name": "Bouzareah", "id": "564", "zipCode": "16011" }, { "location": { "lon": 3.0425977, "lat": 36.7162726 }, "name": "Birkhadem", "id": "565", "zipCode": "16012" }, { "location": { "lon": 3.1428341, "lat": 36.7029047 }, "name": "El Harrach", "id": "566", "zipCode": "16013" }, { "location": { "lon": 3.0985796, "lat": 36.6672951 }, "name": "Baraki", "id": "567", "zipCode": "16014" }, { "location": { "lon": 3.1754557, "lat": 36.6993487 }, "name": "Oued Smar", "id": "568", "zipCode": "16015" }, { "location": { "lon": 3.1152484, "lat": 36.7117069 }, "name": "Bourouba", "id": "569", "zipCode": "16016" }, { "location": { "lon": 3.1102345, "lat": 36.744147 }, "name": "Hussein Dey", "id": "570", "zipCode": "16017" }, { "location": { "lon": 3.0814946, "lat": 36.7266729 }, "name": "Kouba", "id": "571", "zipCode": "16018" }, { "location": { "lon": 3.1180085, "lat": 36.7261506 }, "name": "Bachedjerah", "id": "572", "zipCode": "16019" }, { "location": { "lon": 3.2281983, "lat": 36.70601449999999 }, "name": "Dar El Beida", "id": "573", "zipCode": "16020" }, { "location": { "lon": 3.1854975, "lat": 36.7206251 }, "name": "Bab Azzouar", "id": "574", "zipCode": "16021" }, { "location": { "lon": 3.0100658, "lat": 36.7574811 }, "name": "Ben Aknoun", "id": "575", "zipCode": "16022" }, { "location": { "lon": 2.9800558, "lat": 36.7528506 }, "name": "Dely Ibrahim", "id": "576", "zipCode": "16023" }, { "location": { "lon": 3.0019362, "lat": 36.8162039 }, "name": "Bains Romains", "id": "577", "zipCode": "16024" }, { "location": { "lon": 3.0100658, "lat": 36.8112925 }, "name": "Rais Hamidou", "id": "578", "zipCode": "16025" }, { "location": { "lon": 3.079263, "lat": 36.6978776 }, "name": "Djasr Kasentina", "id": "579", "zipCode": "16026" }, { "location": { "lon": 3.0488564, "lat": 36.7497677 }, "name": "El Mouradia", "id": "580", "zipCode": "16027" }, { "location": { "lon": 3.0250778, "lat": 36.7409507 }, "name": "Hydra", "id": "581", "zipCode": "16028" }, { "location": { "lon": 3.1528692, "lat": 36.73495279999999 }, "name": "Mohammadia", "id": "582", "zipCode": "16029" }, { "location": { "lon": 3.190432, "lat": 36.747187 }, "name": "Bordj El Kiffan", "id": "583", "zipCode": "16030" }, { "location": { "lon": 3.1114879, "lat": 36.7319999 }, "name": "El Magharia", "id": "584", "zipCode": "16031" }, { "location": { "lon": 2.9725563, "lat": 36.782641 }, "name": "Beni Messous", "id": "585", "zipCode": "16032" }, { "location": { "lon": 3.1679257, "lat": 36.6645264 }, "name": "Les Eucalyptus", "id": "586", "zipCode": "16033" }, { "location": { "lon": 3.0476046, "lat": 36.6460945 }, "name": "Birtouta", "id": "587", "zipCode": "16034" }, { "location": { "lon": 2.9225893, "lat": 36.6222556 }, "name": "Tassala El Merdja", "id": "588", "zipCode": "16035" }, { "location": { "lon": 2.9875565, "lat": 36.6044691 }, "name": "Ouled Chebel", "id": "589", "zipCode": "16036" }, { "location": { "lon": 3.1077277, "lat": 36.6229795 }, "name": "Sidi Moussa", "id": "590", "zipCode": "16037" }, { "location": { "lon": 3.2835137, "lat": 36.7852529 }, "name": "Ain Taya", "id": "591", "zipCode": "16038" }, { "location": { "lon": 3.2404681, "lat": 36.7791328 }, "name": "Bordj El Bahri", "id": "592", "zipCode": "16039" }, { "location": { "lon": 3.2448731, "lat": 36.8111249 }, "name": "Marsa", "id": "593", "zipCode": "16040" }, { "location": { "lon": 3.3086778, "lat": 36.7684157 }, "name": "Haraoua", "id": "594", "zipCode": "16041" }, { "location": { "lon": 3.2885455, "lat": 36.7259091 }, "name": "Rouiba", "id": "595", "zipCode": "16042" }, { "location": { "lon": 3.3387368, "lat": 36.7431477 }, "name": "Reghaia", "id": "596", "zipCode": "16043" }, { "location": { "lon": 2.9337917, "lat": 36.7965083 }, "name": "Ain Benian", "id": "597", "zipCode": "16044" }, { "location": { "lon": 2.8881795, "lat": 36.7516507 }, "name": "Staoueli", "id": "598", "zipCode": "16045" }, { "location": { "lon": 2.8277963, "lat": 36.6946148 }, "name": "Zeralda", "id": "599", "zipCode": "16046" }, { "location": { "lon": 2.8676861, "lat": 36.65054629999999 }, "name": "Mahelma", "id": "600", "zipCode": "16047" }, { "location": { "lon": 2.9126022, "lat": 36.6764115 }, "name": "Rahmania", "id": "601", "zipCode": "16048" }, { "location": { "lon": 2.9026172, "lat": 36.7089832 }, "name": "Souidania", "id": "602", "zipCode": "16049" }, { "location": { "lon": 2.9225893, "lat": 36.7623459 }, "name": "Cheraga", "id": "603", "zipCode": "16050" }, { "location": { "lon": 2.9425698, "lat": 36.7295502 }, "name": "Ouled Fayet", "id": "604", "zipCode": "16051" }, { "location": { "lon": 2.9825559, "lat": 36.7285583 }, "name": "El Achour", "id": "605", "zipCode": "16052" }, { "location": { "lon": 3.0025615, "lat": 36.7172858 }, "name": "Draria", "id": "606", "zipCode": "16053" }, { "location": { "lon": 2.9275836, "lat": 36.6490943 }, "name": "Douera", "id": "607", "zipCode": "16054" }, { "location": { "lon": 2.9731072, "lat": 36.6943775 }, "name": "Baba Hassen", "id": "608", "zipCode": "16055" }, { "location": { "lon": 3.0275802, "lat": 36.6897194 }, "name": "Saoula", "id": "610", "zipCode": "16057" }] },
    { "id": "17", "name": "Djelfa", "municipality": [{ "location": { "lon": 3.2684215, "lat": 34.6751691 }, "name": "Djelfa", "id": "611", "zipCode": "17001" }, { "location": { "lon": 3.4675075, "lat": 34.5065791 }, "name": "Moudjebara", "id": "612", "zipCode": "17002" }, { "location": { "lon": 3.0275802, "lat": 35.07822850000001 }, "name": "Hassi Bahbah", "id": "614", "zipCode": "17004" }, { "location": { "lon": 3.1328011, "lat": 34.8056891 }, "name": "Ain Maabed", "id": "615", "zipCode": "17005" }, { "location": { "lon": 3.2256855, "lat": 33.9524075 }, "name": "Sed Rahal", "id": "616", "zipCode": "17006" }, { "location": { "lon": 3.7816093, "lat": 34.5304864 }, "name": "Feidh El Botma", "id": "617", "zipCode": "17007" }, { "location": { "lon": 3.2231727, "lat": 35.6267216 }, "name": "Birine", "id": "618", "zipCode": "17008" }, { "location": { "lon": 3.1403256, "lat": 35.2429194 }, "name": "Bouira Lahdeb", "id": "619", "zipCode": "17009" }, { "location": { "lon": 3.3250413, "lat": 34.4316233 }, "name": "Zaccar", "id": "620", "zipCode": "17010" }, { "location": { "lon": 2.5966036, "lat": 35.2886856 }, "name": "El Khemis", "id": "621", "zipCode": "17011" }, { "location": { "lon": 3.4321679, "lat": 35.0592433 }, "name": "Sidi Baizid", "id": "622", "zipCode": "17012" }, { "location": { "lon": 3.4813978, "lat": 34.7562504 }, "name": "Mliliha", "id": "623", "zipCode": "17013" }, { "location": { "lon": 2.5247449, "lat": 34.4548511 }, "name": "El Idrissia", "id": "624", "zipCode": "17014" }, { "location": { "lon": 2.706634, "lat": 34.373924 }, "name": "Douis", "id": "625", "zipCode": "17015" }, { "location": { "lon": 3.2533339, "lat": 35.1548428 }, "name": "Hassi El Euch", "id": "626", "zipCode": "17016" }, { "location": { "lon": 3.495292, "lat": 34.1536688 }, "name": "Messaad", "id": "627", "zipCode": "17017" }, { "location": { "lon": 4.6850858, "lat": 33.1610943 }, "name": "Guettara", "id": "628", "zipCode": "17018" }, { "location": { "lon": 2.514842, "lat": 35.435674 }, "name": "Sidi Ladjel", "id": "629", "zipCode": "17019" }, { "location": { "lon": 3.3615643, "lat": 35.3521531 }, "name": "Had Sahary", "id": "630", "zipCode": "17020" }, { "location": { "lon": 2.6822356, "lat": 35.2003683 }, "name": "Guernini", "id": "631", "zipCode": "17021" }, { "location": { "lon": 3.5991846, "lat": 34.1762857 }, "name": "Selmana", "id": "632", "zipCode": "17022" }, { "location": { "lon": 2.522269, "lat": 34.2413281 }, "name": "Ain Chouhada", "id": "633", "zipCode": "17023" }, { "location": { "lon": 4.530214099999999, "lat": 33.7206099 }, "name": "Oum Laadham", "id": "634", "zipCode": "17024" }, { "location": { "lon": 2.8003916, "lat": 34.6176861 }, "name": "Charef", "id": "636", "zipCode": "17026" }, { "location": { "lon": 2.783333, "lat": 34.466667 }, "name": "Beni Yacoub", "id": "637", "zipCode": "17027" }, { "location": { "lon": 2.8502302, "lat": 34.8539773 }, "name": "Zaafrane", "id": "638", "zipCode": "17028" }, { "location": { "lon": 3.2256855, "lat": 34.3525264 }, "name": "Ain El Ibel", "id": "640", "zipCode": "17030" }, { "location": { "lon": 2.9076094, "lat": 35.4542653 }, "name": "Ain Oussera", "id": "641", "zipCode": "17031" }, { "location": { "lon": 3.0113166, "lat": 35.4859395 }, "name": "Benhar", "id": "642", "zipCode": "17032" }, { "location": { "lon": 3.8693481, "lat": 34.3547243 }, "name": "Amourah", "id": "644", "zipCode": "17034" }, { "location": { "lon": 3.5407909, "lat": 35.4702472 }, "name": "Ain Fekka", "id": "645", "zipCode": "17035" }, { "location": { "lon": 2.983333, "lat": 34.283333 }, "name": "Tadmit", "id": "646", "zipCode": "17036" }] },
    { "id": "18", "name": "Jijel", "municipality": [{ "location": { "lon": 5.749093299999999, "lat": 36.81673869999999 }, "name": "Jijel", "id": "647", "zipCode": "18001" }, { "location": { "lon": 5.569604099999999, "lat": 36.584745 }, "name": "Erraguene", "id": "648", "zipCode": "18002" }, { "location": { "lon": 5.6352801, "lat": 36.7456809 }, "name": "El Aouana", "id": "649", "zipCode": "18003" }, { "location": { "lon": 5.4987565, "lat": 36.6337798 }, "name": "Ziamma Mansouriah", "id": "650", "zipCode": "18004" }, { "location": { "lon": 5.909275399999999, "lat": 36.7753597 }, "name": "Taher", "id": "651", "zipCode": "18005" }, { "location": { "lon": 5.8459341, "lat": 36.77848669999999 }, "name": "Emir Abdelkader", "id": "652", "zipCode": "18006" }, { "location": { "lon": 5.9581464, "lat": 36.771582 }, "name": "Chekfa", "id": "653", "zipCode": "18007" }, { "location": { "lon": 5.9548431, "lat": 36.6770779 }, "name": "Chahna", "id": "654", "zipCode": "18008" }, { "location": { "lon": 6.2853999, "lat": 36.7507275 }, "name": "El Milia", "id": "655", "zipCode": "18009" }, { "location": { "lon": 6.273445199999999, "lat": 36.6425914 }, "name": "Sidi Maarouf", "id": "656", "zipCode": "18010" }, { "location": { "lon": 6.3359009, "lat": 36.71852519999999 }, "name": "Settara", "id": "657", "zipCode": "18011" }, { "location": { "lon": 6.1593269, "lat": 36.798905 }, "name": "El Ancer", "id": "658", "zipCode": "18012" }, { "location": { "lon": 6.0526981, "lat": 36.8546552 }, "name": "Sidi Abdelaziz", "id": "659", "zipCode": "18013" }, { "location": { "lon": 5.7405139, "lat": 36.7406564 }, "name": "Kaous", "id": "660", "zipCode": "18014" }, { "location": { "lon": 6.387773399999999, "lat": 36.6284551 }, "name": "Ghebala", "id": "661", "zipCode": "18015" }, { "location": { "lon": 6.104333599999999, "lat": 36.6977238 }, "name": "Bouraoui Belhadef", "id": "662", "zipCode": "18016" }, { "location": { "lon": 5.624766999999999, "lat": 36.6709346 }, "name": "Selma Benziada", "id": "664", "zipCode": "18018" }, { "location": { "lon": 6.018960000000001, "lat": 36.6422747 }, "name": "Boussif Ouled Askeur", "id": "665", "zipCode": "18019" }, { "location": { "lon": 5.962771399999999, "lat": 36.82568029999999 }, "name": "El Kennar Nouchfi", "id": "666", "zipCode": "18020" }, { "location": { "lon": 5.7826597, "lat": 36.5880677 }, "name": "Boudria Beni Yadjis", "id": "668", "zipCode": "18022" }, { "location": { "lon": 5.751047499999999, "lat": 36.6649099 }, "name": "Texena", "id": "670", "zipCode": "18024" }, { "location": { "lon": 6.1222175, "lat": 36.8088666 }, "name": "Djemaa Beni Habibi", "id": "671", "zipCode": "18025" }, { "location": { "lon": 5.968859, "lat": 36.7707314 }, "name": "Bordj Taher", "id": "672", "zipCode": "18026" }, { "location": { "lon": 6.169933599999999, "lat": 36.5969116 }, "name": "Ouled Rabah", "id": "673", "zipCode": "18027" }, { "location": { "lon": 5.8881542, "lat": 36.6904688 }, "name": "Ouadjana", "id": "674", "zipCode": "18028" }] },
    { "id": "19", "name": "S\u00e9tif", "municipality": [{ "location": { "lon": 5.4150871, "lat": 36.1969027 }, "name": "Setif", "id": "675", "zipCode": "19001" }, { "location": { "lon": 5.509246999999999, "lat": 36.3637833 }, "name": "Ain El Kebira", "id": "676", "zipCode": "19002" }, { "location": { "lon": 5.6563119, "lat": 36.4648323 }, "name": "Beni Aziz", "id": "677", "zipCode": "19003" }, { "location": { "lon": 5.166666999999999, "lat": 35.733333 }, "name": "Ouled Sidi Ahmed", "id": "678", "zipCode": "19004" }, { "location": { "lon": 5.2475518, "lat": 35.6920766 }, "name": "Boutaleb", "id": "679", "zipCode": "19005" }, { "location": { "lon": 5.1953554, "lat": 36.3129898 }, "name": "Ain Roua", "id": "680", "zipCode": "19006" }, { "location": { "lon": 4.9973939, "lat": 36.4379461 }, "name": "Draa Kebila", "id": "681", "zipCode": "19007" }, { "location": { "lon": 5.7932008, "lat": 36.1016103 }, "name": "Bir El Arch", "id": "682", "zipCode": "19008" }, { "location": { "lon": 4.9039424, "lat": 36.4764952 }, "name": "Beni Chebana", "id": "683", "zipCode": "19009" }, { "location": { "lon": 5.1223608, "lat": 35.7845851 }, "name": "Ouled Tebben", "id": "684", "zipCode": "19010" }, { "location": { "lon": 5.373017600000001, "lat": 35.6865509 }, "name": "Hamma", "id": "685", "zipCode": "19011" }, { "location": { "lon": 5.6983979, "lat": 36.398105 }, "name": "Maaouia", "id": "686", "zipCode": "19012" }, { "location": { "lon": 4.891024199999999, "lat": 36.4096669 }, "name": "Ain Legraj", "id": "687", "zipCode": "19013" }, { "location": { "lon": 5.2893433, "lat": 36.2980641 }, "name": "Ain Abessa", "id": "688", "zipCode": "19014" }, { "location": { "lon": 5.624766999999999, "lat": 36.3692058 }, "name": "Dehamcha", "id": "689", "zipCode": "19015" }, { "location": { "lon": 5.4987565, "lat": 36.46140159999999 }, "name": "Babor", "id": "690", "zipCode": "19016" }, { "location": { "lon": 5.4987565, "lat": 36.0721187 }, "name": "Guidjel", "id": "691", "zipCode": "19017" }, { "location": { "lon": 5.541949700000001, "lat": 35.9372791 }, "name": "Ain Lahdjar", "id": "692", "zipCode": "19018" }, { "location": { "lon": 5.0078451, "lat": 36.4937653 }, "name": "Bousselam", "id": "693", "zipCode": "19019" }, { "location": { "lon": 5.6983979, "lat": 36.1603006 }, "name": "El Eulma", "id": "694", "zipCode": "19020" }, { "location": { "lon": 5.7932008, "lat": 36.3179676 }, "name": "Djemila", "id": "695", "zipCode": "19021" }, { "location": { "lon": 4.8525282, "lat": 36.44220550000001 }, "name": "Beni Ouartilane", "id": "696", "zipCode": "19022" }, { "location": { "lon": 5.2475518, "lat": 35.7791966 }, "name": "Rosfa", "id": "697", "zipCode": "19023" }, { "location": { "lon": 5.4672962, "lat": 36.344105 }, "name": "Ouled Addouane", "id": "698", "zipCode": "19024" }, { "location": { "lon": 5.8775964, "lat": 36.2273854 }, "name": "Belaa", "id": "699", "zipCode": "19025" }, { "location": { "lon": 5.3302913, "lat": 36.1755508 }, "name": "Ain Arnat", "id": "700", "zipCode": "19026" }, { "location": { "lon": 5.414900299999999, "lat": 36.3788902 }, "name": "Amoucha", "id": "701", "zipCode": "19027" }, { "location": { "lon": 5.2976288, "lat": 35.9147478 }, "name": "Ain Oulmane", "id": "702", "zipCode": "19028" }, { "location": { "lon": 5.666313, "lat": 35.8941421 }, "name": "Beidha Bordj", "id": "703", "zipCode": "19029" }, { "location": { "lon": 5.1119407, "lat": 36.5109283 }, "name": "Bouandas", "id": "704", "zipCode": "19030" }, { "location": { "lon": 5.6668306, "lat": 36.0643003 }, "name": "Bazer Sakhra", "id": "705", "zipCode": "19031" }, { "location": { "lon": 5.8353837, "lat": 35.96946399999999 }, "name": "Hammam Essokhna", "id": "706", "zipCode": "19032" }, { "location": { "lon": 5.2475518, "lat": 36.08336389999999 }, "name": "Mezloug", "id": "707", "zipCode": "19033" }, { "location": { "lon": 5.4987565, "lat": 35.9853448 }, "name": "Bir Haddada", "id": "708", "zipCode": "19034" }, { "location": { "lon": 5.593239, "lat": 36.4678015 }, "name": "Serdj El Ghoul", "id": "709", "zipCode": "19035" }, { "location": { "lon": 4.9247074, "lat": 36.3460467 }, "name": "Harbil", "id": "710", "zipCode": "19036" }, { "location": { "lon": 5.414900299999999, "lat": 36.2924521 }, "name": "El Ouricia", "id": "711", "zipCode": "19037" }, { "location": { "lon": 5.3625516, "lat": 36.4352238 }, "name": "Tizi Nbechar", "id": "712", "zipCode": "19038" }, { "location": { "lon": 5.373017600000001, "lat": 35.8171868 }, "name": "Salah Bey", "id": "713", "zipCode": "19039" }, { "location": { "lon": 5.5133952, "lat": 35.8184752 }, "name": "Ain Azal", "id": "714", "zipCode": "19040" }, { "location": { "lon": 4.8209596, "lat": 36.3286473 }, "name": "Guenzet", "id": "715", "zipCode": "19041" }, { "location": { "lon": 5.7089241, "lat": 35.9755409 }, "name": "Talaifacene", "id": "716", "zipCode": "19042" }, { "location": { "lon": 5.1119407, "lat": 36.3381987 }, "name": "Bougaa", "id": "717", "zipCode": "19043" }, { "location": { "lon": 5.5827334, "lat": 36.28474420000001 }, "name": "Beni Fouda", "id": "718", "zipCode": "19044" }, { "location": { "lon": 5.7405139, "lat": 36.2664729 }, "name": "Tachouda", "id": "719", "zipCode": "19045" }, { "location": { "lon": 4.9096065, "lat": 36.51669589999999 }, "name": "Beni Mouhli", "id": "720", "zipCode": "19046" }, { "location": { "lon": 5.5407299, "lat": 36.1568639 }, "name": "Ouled Sabor", "id": "721", "zipCode": "19047" }, { "location": { "lon": 5.3311652, "lat": 36.03630090000001 }, "name": "Guellal", "id": "722", "zipCode": "19048" }, { "location": { "lon": 5.7194522, "lat": 36.4833899 }, "name": "Ain Sebt", "id": "723", "zipCode": "19049" }, { "location": { "lon": 5.0548544, "lat": 36.3222675 }, "name": "Hammam Guergour", "id": "724", "zipCode": "19050" }, { "location": { "lon": 5.0754854, "lat": 36.5394362 }, "name": "Ait Naoual Mezada", "id": "725", "zipCode": "19051" }, { "location": { "lon": 5.2162283, "lat": 35.9870878 }, "name": "Ksar El Abtal", "id": "726", "zipCode": "19052" }, { "location": { "lon": 5.1119407, "lat": 36.251687 }, "name": "Beni Hocine", "id": "727", "zipCode": "19053" }, { "location": { "lon": 5.1327829, "lat": 36.5531554 }, "name": "Ait Tizi", "id": "728", "zipCode": "19054" }, { "location": { "lon": 5.0769287, "lat": 36.3966491 }, "name": "Maouklane", "id": "729", "zipCode": "19055" }, { "location": { "lon": 5.677351199999999, "lat": 36.2045916 }, "name": "Guelta Zerka", "id": "730", "zipCode": "19056" }, { "location": { "lon": 5.4253757, "lat": 36.4971074 }, "name": "Oued El Barad", "id": "731", "zipCode": "19057" }, { "location": { "lon": 5.9665303, "lat": 35.959337 }, "name": "Taya", "id": "732", "zipCode": "19058" }, { "location": { "lon": 5.9198387, "lat": 36.0520855 }, "name": "El Ouldja", "id": "733", "zipCode": "19059" }, { "location": { "lon": 5.7089241, "lat": 35.9755409 }, "name": "Tella", "id": "734", "zipCode": "19060" }] },
    { "id": "20", "name": "Sa\u00efda", "municipality": [{ "location": { "lon": 0.1484305, "lat": 34.8412014 }, "name": "Saida", "id": "735", "zipCode": "20001" }, { "location": { "lon": -0.0735088, "lat": 34.8941184 }, "name": "Doui Thabet", "id": "736", "zipCode": "20002" }, { "location": { "lon": 0.15418, "lat": 34.7574087 }, "name": "Ain El Hadjar", "id": "737", "zipCode": "20003" }, { "location": { "lon": 0.1524313, "lat": 34.8765984 }, "name": "Ouled Khaled", "id": "738", "zipCode": "20004" }, { "location": { "lon": 0.0116586, "lat": 34.6497005 }, "name": "Moulay Larbi", "id": "739", "zipCode": "20005" }, { "location": { "lon": -0.2080547, "lat": 34.92016100000001 }, "name": "Youb", "id": "740", "zipCode": "20006" }, { "location": { "lon": -0.1148012, "lat": 35.0903759 }, "name": "Hounet", "id": "741", "zipCode": "20007" }, { "location": { "lon": 0.1097315, "lat": 35.0249991 }, "name": "Sidi Amar", "id": "742", "zipCode": "20008" }, { "location": { "lon": 0.0536592, "lat": 35.0305441 }, "name": "Sidi Boubekeur", "id": "743", "zipCode": "20009" }, { "location": { "lon": 0.3301342, "lat": 34.8260947 }, "name": "El Hassasna", "id": "744", "zipCode": "20010" }, { "location": { "lon": 0.4997973000000001, "lat": 34.6818661 }, "name": "Maamora", "id": "745", "zipCode": "20011" }, { "location": { "lon": 0.259657, "lat": 34.5497948 }, "name": "Sidi Ahmed", "id": "746", "zipCode": "20012" }, { "location": { "lon": 0.8441666999999999, "lat": 34.5044444 }, "name": "Ain Sekhouna", "id": "747", "zipCode": "20013" }, { "location": { "lon": 0.4718608999999999, "lat": 34.986248 }, "name": "Ouled Brahim", "id": "748", "zipCode": "20014" }, { "location": { "lon": 0.5529666, "lat": 34.9011622 }, "name": "Tircine", "id": "749", "zipCode": "20015" }, { "location": { "lon": 0.3034289, "lat": 34.9675528 }, "name": "Ain Soltane", "id": "750", "zipCode": "20016" }] },
    { "id": "21", "name": "Skikda", "municipality": [{ "location": { "lon": 6.910180599999999, "lat": 36.8715199 }, "name": "Skikda", "id": "751", "zipCode": "21001" }, { "location": { "lon": 6.7888879, "lat": 36.8912294 }, "name": "Ain Zouit", "id": "752", "zipCode": "21002" }, { "location": { "lon": 6.8873791, "lat": 36.8259805 }, "name": "El Hadaik", "id": "753", "zipCode": "21003" }, { "location": { "lon": 7.1170952, "lat": 36.7441137 }, "name": "Azzaba", "id": "754", "zipCode": "21004" }, { "location": { "lon": 7.169598099999999, "lat": 36.7824999 }, "name": "Djendel Saadi Mohamed", "id": "755", "zipCode": "21005" }, { "location": { "lon": 7.223489900000001, "lat": 36.7336763 }, "name": "Ain Cherchar", "id": "756", "zipCode": "21006" }, { "location": { "lon": 7.305758099999999, "lat": 36.700497 }, "name": "Bekkouche Lakhdar", "id": "757", "zipCode": "21007" }, { "location": { "lon": 7.296312400000001, "lat": 36.8658203 }, "name": "Benazouz", "id": "758", "zipCode": "21008" }, { "location": { "lon": 7.069999999999999, "lat": 36.6599999 }, "name": "Es Sebt", "id": "759", "zipCode": "21009" }, { "location": { "lon": 6.554319899999999, "lat": 37.0013848 }, "name": "Collo", "id": "760", "zipCode": "21010" }, { "location": { "lon": 6.4809854, "lat": 36.9318483 }, "name": "Beni Zid", "id": "761", "zipCode": "21011" }, { "location": { "lon": 6.5876817, "lat": 36.9313308 }, "name": "Kerkera", "id": "762", "zipCode": "21012" }, { "location": { "lon": 6.313303299999999, "lat": 36.9221397 }, "name": "Oued Zehour", "id": "764", "zipCode": "21014" }, { "location": { "lon": 6.4556713, "lat": 36.9880728 }, "name": "Zitouna", "id": "765", "zipCode": "21015" }, { "location": { "lon": 6.840459999999999, "lat": 36.6557031 }, "name": "El Harrouch", "id": "766", "zipCode": "21016" }, { "location": { "lon": 6.972405699999999, "lat": 36.516375 }, "name": "Ouled Hebaba", "id": "768", "zipCode": "21018" }, { "location": { "lon": 6.7186283, "lat": 36.6800923 }, "name": "Sidi Mezghiche", "id": "769", "zipCode": "21019" }, { "location": { "lon": 6.805627599999999, "lat": 36.7033327 }, "name": "Emdjez Edchich", "id": "770", "zipCode": "21020" }, { "location": { "lon": 6.634417699999999, "lat": 36.6270696 }, "name": "Beni Oulbane", "id": "771", "zipCode": "21021" }, { "location": { "lon": 6.738694600000001, "lat": 36.6024073 }, "name": "Ain Bouziane", "id": "772", "zipCode": "21022" }, { "location": { "lon": 6.894084599999999, "lat": 36.7599329 }, "name": "Ramdane Djamel", "id": "773", "zipCode": "21023" }, { "location": { "lon": 6.933332999999999, "lat": 36.783333 }, "name": "Beni Bachir", "id": "774", "zipCode": "21024" }, { "location": { "lon": 6.853861999999999, "lat": 36.7005645 }, "name": "Salah Bouchaour", "id": "775", "zipCode": "21025" }, { "location": { "lon": 6.645105, "lat": 36.8357539 }, "name": "Tamalous", "id": "776", "zipCode": "21026" }, { "location": { "lon": 6.431699000000001, "lat": 36.7455954 }, "name": "Ain Kechra", "id": "777", "zipCode": "21027" }, { "location": { "lon": 6.5756695, "lat": 36.6894163 }, "name": "Oum Toub", "id": "778", "zipCode": "21028" }, { "location": { "lon": 7.0821162, "lat": 36.8828035 }, "name": "Fil Fila", "id": "780", "zipCode": "21030" }, { "location": { "lon": 6.512975399999999, "lat": 37.0023239 }, "name": "Cheraia", "id": "781", "zipCode": "21031" }, { "location": { "lon": 6.4037428, "lat": 37.0376737 }, "name": "Kanoua", "id": "782", "zipCode": "21032" }, { "location": { "lon": 6.9759468, "lat": 36.6867619 }, "name": "El Ghedir", "id": "783", "zipCode": "21033" }, { "location": { "lon": 6.8, "lat": 36.783333 }, "name": "Bouchtata", "id": "784", "zipCode": "21034" }, { "location": { "lon": 6.928964199999999, "lat": 36.8463287 }, "name": "Hamadi Krouma", "id": "787", "zipCode": "21037" }, { "location": { "lon": 7.286867999999999, "lat": 37.0094161 }, "name": "El Marsa", "id": "788", "zipCode": "21038" }] },
    { "id": "22", "name": "Sidi Bel Abb\u00e8s", "municipality": [{ "location": { "lon": -0.6298922, "lat": 35.2022249 }, "name": "Sidi Bel Abbes", "id": "789", "zipCode": "22001" }, { "location": { "lon": -0.7818088999999999, "lat": 35.2672655 }, "name": "Tessala", "id": "790", "zipCode": "22002" }, { "location": { "lon": -0.5730713, "lat": 35.268429 }, "name": "Sidi Brahim", "id": "791", "zipCode": "22003" }, { "location": { "lon": -0.359435, "lat": 35.1925642 }, "name": "Mostefa Ben Brahim", "id": "792", "zipCode": "22004" }, { "location": { "lon": -0.5446911999999999, "lat": 34.7949589 }, "name": "Telagh", "id": "793", "zipCode": "22005" }, { "location": { "lon": -0.658333, "lat": 34.8385674 }, "name": "Mezaourou", "id": "794", "zipCode": "22006" }, { "location": { "lon": -0.6962853, "lat": 35.0588511 }, "name": "Boukhanafis", "id": "795", "zipCode": "22007" }, { "location": { "lon": -0.8336504, "lat": 35.1036318 }, "name": "Sidi Ali Boussidi", "id": "796", "zipCode": "22008" }, { "location": { "lon": -0.8496433999999999, "lat": 35.0096949 }, "name": "Badredine El Mokrani", "id": "797", "zipCode": "22009" }, { "location": { "lon": -0.1939932, "lat": 34.4446266 }, "name": "Marhoum", "id": "798", "zipCode": "22010" }, { "location": { "lon": -0.2021951, "lat": 34.6923957 }, "name": "Tafissour", "id": "799", "zipCode": "22011" }, { "location": { "lon": -0.610943, "lat": 35.0923336 }, "name": "Amarnas", "id": "800", "zipCode": "22012" }, { "location": { "lon": -0.5352355999999999, "lat": 35.1806922 }, "name": "Tilmouni", "id": "801", "zipCode": "22013" }, { "location": { "lon": -0.724773, "lat": 35.2016965 }, "name": "Sidi Lahcene", "id": "802", "zipCode": "22014" }, { "location": { "lon": -0.6755257000000001, "lat": 35.2850615 }, "name": "Ain Thrid", "id": "803", "zipCode": "22015" }, { "location": { "lon": -0.4307836, "lat": 35.4411307 }, "name": "Makedra", "id": "804", "zipCode": "22016" }, { "location": { "lon": -0.5068824, "lat": 35.0157329 }, "name": "Tenira", "id": "805", "zipCode": "22017" }, { "location": { "lon": -0.760411, "lat": 34.824175 }, "name": "Moulay Slissen", "id": "806", "zipCode": "22018" }, { "location": { "lon": -0.7615995, "lat": 34.6984869 }, "name": "El Hacaiba", "id": "807", "zipCode": "22019" }, { "location": { "lon": -0.8889678, "lat": 35.0273144 }, "name": "Hassi Zehana", "id": "808", "zipCode": "22020" }, { "location": { "lon": -0.7437760999999999, "lat": 35.0255332 }, "name": "Tabia", "id": "809", "zipCode": "22021" }, { "location": { "lon": -0.4478783000000001, "lat": 34.7815446 }, "name": "Merine", "id": "810", "zipCode": "22022" }, { "location": { "lon": -0.8055975999999999, "lat": 34.5003381 }, "name": "Ras El Ma", "id": "811", "zipCode": "22023" }, { "location": { "lon": -0.7212109999999999, "lat": 34.6876739 }, "name": "Ain Tindamine", "id": "812", "zipCode": "22024" }, { "location": { "lon": -0.8567905, "lat": 35.136239 }, "name": "Ain Kada", "id": "813", "zipCode": "22025" }, { "location": { "lon": -0.2469943999999999, "lat": 35.1386244 }, "name": "Mcid", "id": "814", "zipCode": "22026" }, { "location": { "lon": -0.6678177, "lat": 35.1140441 }, "name": "Sidi Khaled", "id": "815", "zipCode": "22027" }, { "location": { "lon": -0.5068824, "lat": 35.3675096 }, "name": "Ain El Berd", "id": "816", "zipCode": "22028" }, { "location": { "lon": -0.2807868, "lat": 35.2365004 }, "name": "Sfissef", "id": "817", "zipCode": "22029" }, { "location": { "lon": -0.2608306, "lat": 35.3285126 }, "name": "Ain Adden", "id": "818", "zipCode": "22030" }, { "location": { "lon": -0.3266073, "lat": 34.8026387 }, "name": "Oued Taourira", "id": "819", "zipCode": "22031" }, { "location": { "lon": -0.6216008, "lat": 34.6743959 }, "name": "Dhaya", "id": "820", "zipCode": "22032" }, { "location": { "lon": -0.4313729, "lat": 35.23605930000001 }, "name": "Zerouala", "id": "821", "zipCode": "22033" }, { "location": { "lon": -0.7989959999999999, "lat": 35.071492 }, "name": "Lamtar", "id": "822", "zipCode": "22034" }, { "location": { "lon": -0.5470554, "lat": 34.5931437 }, "name": "Sidi Chaib", "id": "823", "zipCode": "22035" }, { "location": { "lon": -0.7084642, "lat": 34.5871725 }, "name": "Oued Sbaa", "id": "825", "zipCode": "22037" }, { "location": { "lon": -0.3236685, "lat": 35.3523658 }, "name": "Boudjebaa El Bordj", "id": "826", "zipCode": "22038" }, { "location": { "lon": -0.8579818, "lat": 35.2228096 }, "name": "Sehala Thaoura", "id": "827", "zipCode": "22039" }, { "location": { "lon": -0.7770528999999999, "lat": 35.1518977 }, "name": "Sidi Yacoub", "id": "828", "zipCode": "22040" }, { "location": { "lon": -0.5163312, "lat": 35.3126031 }, "name": "Sidi Hamadouche", "id": "829", "zipCode": "22041" }, { "location": { "lon": -0.4408037, "lat": 35.1370812 }, "name": "Belarbi", "id": "830", "zipCode": "22042" }, { "location": { "lon": -0.5517843000000001, "lat": 34.8859984 }, "name": "Teghalimet", "id": "832", "zipCode": "22044" }, { "location": { "lon": -0.8961217, "lat": 34.9363466 }, "name": "Ben Badis", "id": "833", "zipCode": "22045" }, { "location": { "lon": -0.7342734, "lat": 34.9264009 }, "name": "Sidi Ali Benyoub", "id": "834", "zipCode": "22046" }, { "location": { "lon": -0.8365437, "lat": 34.950551 }, "name": "Chetouane Belaila", "id": "835", "zipCode": "22047" }, { "location": { "lon": -0.5009781, "lat": 34.4174164 }, "name": "Bir El Hammam", "id": "836", "zipCode": "22048" }, { "location": { "lon": -0.1144079, "lat": 34.5887754 }, "name": "Taoudmout", "id": "837", "zipCode": "22049" }, { "location": { "lon": -0.8091670999999999, "lat": 34.4268654 }, "name": "Redjem Demouche", "id": "838", "zipCode": "22050" }, { "location": { "lon": -0.6130087, "lat": 34.963705 }, "name": "Benachiba Chelia", "id": "839", "zipCode": "22051" }, { "location": { "lon": -0.5446911999999999, "lat": 35.1036532 }, "name": "Hassi Dahou", "id": "840", "zipCode": "22052" }] },
    { "id": "23", "name": "Annaba", "municipality": [{ "location": { "lon": 7.752535200000001, "lat": 36.9264582 }, "name": "Annaba", "id": "841", "zipCode": "23001" }, { "location": { "lon": 7.4597725, "lat": 36.8275635 }, "name": "Berrahel", "id": "842", "zipCode": "23002" }, { "location": { "lon": 7.665662500000001, "lat": 36.7609066 }, "name": "El Hadjar", "id": "843", "zipCode": "23003" }, { "location": { "lon": 7.4597725, "lat": 36.6989793 }, "name": "Eulma", "id": "844", "zipCode": "23004" }, { "location": { "lon": 7.7431524, "lat": 36.8535764 }, "name": "El Bouni", "id": "845", "zipCode": "23005" }, { "location": { "lon": 7.503066899999999, "lat": 36.9104322 }, "name": "Oued El Aneb", "id": "846", "zipCode": "23006" }, { "location": { "lon": 7.5788975, "lat": 36.7236097 }, "name": "Cheurfa", "id": "847", "zipCode": "23007" }, { "location": { "lon": 7.633112999999999, "lat": 36.944893 }, "name": "Seraidi", "id": "848", "zipCode": "23008" }, { "location": { "lon": 7.590099500000001, "lat": 36.6449172 }, "name": "Ain Berda", "id": "849", "zipCode": "23009" }, { "location": { "lon": 7.3732655, "lat": 37.0040741 }, "name": "Chetaibi", "id": "850", "zipCode": "23010" }, { "location": { "lon": 7.665662500000001, "lat": 36.8037437 }, "name": "Sidi Amer", "id": "851", "zipCode": "23011" }, { "location": { "lon": 7.4165053, "lat": 36.915875 }, "name": "Treat", "id": "852", "zipCode": "23012" }] },
    { "id": "24", "name": "Guelma", "municipality": [{ "location": { "lon": 7.4327273, "lat": 36.458976 }, "name": "Guelma", "id": "853", "zipCode": "24001" }, { "location": { "lon": 7.5111876, "lat": 36.61258309999999 }, "name": "Nechmaya", "id": "854", "zipCode": "24002" }, { "location": { "lon": 7.3260032, "lat": 36.5905648 }, "name": "Bouati Mahmoud", "id": "855", "zipCode": "24003" }, { "location": { "lon": 7.162864700000001, "lat": 36.3139054 }, "name": "Oued Zenati", "id": "856", "zipCode": "24004" }, { "location": { "lon": 7.139976, "lat": 36.1573949 }, "name": "Tamlouka", "id": "857", "zipCode": "24005" }, { "location": { "lon": 7.7118003, "lat": 36.556799 }, "name": "Oued Fragha", "id": "858", "zipCode": "24006" }, { "location": { "lon": 7.513217999999999, "lat": 36.2431716 }, "name": "Ain Sandel", "id": "859", "zipCode": "24007" }, { "location": { "lon": 7.222816, "lat": 36.3729492 }, "name": "Ras El Agba", "id": "860", "zipCode": "24008" }, { "location": { "lon": 7.734880500000001, "lat": 36.3522993 }, "name": "Dahouara", "id": "861", "zipCode": "24009" }, { "location": { "lon": 7.4787104, "lat": 36.4587897 }, "name": "Belkhir", "id": "862", "zipCode": "24010" }, { "location": { "lon": 7.369888500000001, "lat": 36.4312641 }, "name": "Ben Djarah", "id": "863", "zipCode": "24011" }, { "location": { "lon": 7.1144039, "lat": 36.4622523 }, "name": "Bou Hamdane", "id": "864", "zipCode": "24012" }, { "location": { "lon": 7.2518004, "lat": 36.246509 }, "name": "Ain Makhlouf", "id": "865", "zipCode": "24013" }, { "location": { "lon": 7.699999999999999, "lat": 36.616667 }, "name": "Ain Ben Beida", "id": "866", "zipCode": "24014" }, { "location": { "lon": 7.5342015, "lat": 36.3705271 }, "name": "Khezara", "id": "867", "zipCode": "24015" }, { "location": { "lon": 7.604644599999999, "lat": 36.4817434 }, "name": "Beni Mezline", "id": "868", "zipCode": "24016" }, { "location": { "lon": 7.507803899999999, "lat": 36.306868 }, "name": "Bou Hachana", "id": "869", "zipCode": "24017" }, { "location": { "lon": 7.4787104, "lat": 36.5501826 }, "name": "Guelaat Bou Sbaa", "id": "870", "zipCode": "24018" }, { "location": { "lon": 7.27, "lat": 36.46 }, "name": "Hammam Maskhoutine", "id": "871", "zipCode": "24019" }, { "location": { "lon": 7.3894772, "lat": 36.5046911 }, "name": "El Fedjoudj", "id": "872", "zipCode": "24020" }, { "location": { "lon": 7.048499899999999, "lat": 36.402899 }, "name": "Bordj Sabat", "id": "873", "zipCode": "24021" }, { "location": { "lon": 7.6412489, "lat": 36.3246695 }, "name": "Hamman Nbail", "id": "874", "zipCode": "24022" }, { "location": { "lon": 7.4325, "lat": 36.459102 }, "name": "Ain Larbi", "id": "875", "zipCode": "24023" }, { "location": { "lon": 7.309131799999999, "lat": 36.4457672 }, "name": "Medjez Amar", "id": "876", "zipCode": "24024" }, { "location": { "lon": 7.7362384, "lat": 36.47192709999999 }, "name": "Bouchegouf", "id": "877", "zipCode": "24025" }, { "location": { "lon": 7.4327273, "lat": 36.502001 }, "name": "Heliopolis", "id": "878", "zipCode": "24026" }, { "location": { "lon": 7.2841698, "lat": 36.4170167 }, "name": "Ain Hessania", "id": "879", "zipCode": "24027" }, { "location": { "lon": 7.2342735, "lat": 36.5451275 }, "name": "Roknia", "id": "880", "zipCode": "24028" }, { "location": { "lon": 7.2518004, "lat": 36.3866785 }, "name": "Salaoua Announa", "id": "881", "zipCode": "24029" }, { "location": { "lon": 7.7824225, "lat": 36.4339664 }, "name": "Medjez Sfa", "id": "882", "zipCode": "24030" }, { "location": { "lon": 7.512541199999999, "lat": 36.45800699999999 }, "name": "Boumahra Ahmed", "id": "883", "zipCode": "24031" }, { "location": { "lon": 7.072702, "lat": 36.2612886 }, "name": "Ain Reggada", "id": "884", "zipCode": "24032" }, { "location": { "lon": 7.767477299999999, "lat": 36.38248189999999 }, "name": "Oued Cheham", "id": "885", "zipCode": "24033" }, { "location": { "lon": 7.568736800000001, "lat": 36.4645365 }, "name": "Djeballah Khemissi", "id": "886", "zipCode": "24034" }] },
    { "id": "25", "name": "Constantine", "municipality": [{ "location": { "lon": -85.6686026, "lat": 41.8411603 }, "name": "Constantine", "id": "887", "zipCode": "25001" }, { "location": { "lon": 6.5676625, "lat": 36.4181986 }, "name": "Hamma Bouziane", "id": "888", "zipCode": "25002" }, { "location": { "lon": -121.0886537, "lat": 38.6811223 }, "name": "El Haria", "id": "889", "zipCode": "25003" }, { "location": { "lon": 6.702890399999999, "lat": 36.5309186 }, "name": "Zighoud Youcef", "id": "890", "zipCode": "25004" }, { "location": { "lon": 6.6531216, "lat": 36.4565656 }, "name": "Didouche Mourad", "id": "891", "zipCode": "25005" }, { "location": { "lon": 6.685198199999999, "lat": 36.2714408 }, "name": "El Khroub", "id": "892", "zipCode": "25006" }, { "location": { "lon": 6.9423844, "lat": 36.2135906 }, "name": "Ain Abid", "id": "893", "zipCode": "25007" }, { "location": { "lon": 6.556988199999999, "lat": 36.5372531 }, "name": "Beni Hamiden", "id": "894", "zipCode": "25008" }, { "location": { "lon": 6.8136642, "lat": 36.220992 }, "name": "Ouled Rahmoune", "id": "895", "zipCode": "25009" }, { "location": { "lon": 6.471658, "lat": 36.2831875 }, "name": "Ain Smara", "id": "896", "zipCode": "25010" }, { "location": { "lon": 6.386442799999999, "lat": 36.4603589 }, "name": "Mesaoud Boudjeriou", "id": "897", "zipCode": "25011" }, { "location": { "lon": 6.429036, "lat": 36.3718282 }, "name": "Ibn Ziad", "id": "898", "zipCode": "25012" }] },
    { "id": "26", "name": "M\u00e9d\u00e9a", "municipality": [{ "location": { "lon": 2.7680247, "lat": 36.2853847 }, "name": "Medea", "id": "899", "zipCode": "26001" }, { "location": { "lon": 2.8463103, "lat": 36.252581 }, "name": "Ouzera", "id": "900", "zipCode": "26002" }, { "location": { "lon": 3.0776568, "lat": 35.7669488 }, "name": "Ouled Maaref", "id": "901", "zipCode": "26003" }, { "location": { "lon": 3.1578875, "lat": 35.8520702 }, "name": "Ain Boucif", "id": "902", "zipCode": "26004" }, { "location": { "lon": 3.2281983, "lat": 36.403785 }, "name": "Aissaouia", "id": "903", "zipCode": "26005" }, { "location": { "lon": 3.0375914, "lat": 36.1161743 }, "name": "Ouled Deide", "id": "904", "zipCode": "26006" }, { "location": { "lon": 3.0245978, "lat": 36.2672156 }, "name": "El Omaria", "id": "905", "zipCode": "26007" }, { "location": { "lon": 2.3881368, "lat": 35.9080275 }, "name": "Derrag", "id": "906", "zipCode": "26008" }, { "location": { "lon": 3.4094629, "lat": 36.2472045 }, "name": "El Guelbelkebir", "id": "907", "zipCode": "26009" }, { "location": { "lon": 2.341887, "lat": 35.5868879 }, "name": "Bouaiche", "id": "908", "zipCode": "26010" }, { "location": { "lon": 2.9675572, "lat": 36.2155805 }, "name": "Ouled Brahim", "id": "910", "zipCode": "26012" }, { "location": { "lon": 3.2483058, "lat": 36.034631 }, "name": "Sidi Ziane", "id": "912", "zipCode": "26014" }, { "location": { "lon": 2.6685736, "lat": 36.3309673 }, "name": "Tamesguida", "id": "913", "zipCode": "26015" }, { "location": { "lon": 2.8776638, "lat": 36.3369617 }, "name": "El Hamdania", "id": "914", "zipCode": "26016" }, { "location": { "lon": 3.238251, "lat": 35.9370344 }, "name": "Kef Lakhdar", "id": "915", "zipCode": "26017" }, { "location": { "lon": 3.3993751, "lat": 35.9325946 }, "name": "Chelalet El Adhaoura", "id": "916", "zipCode": "26018" }, { "location": { "lon": 3.1980527, "lat": 36.1554282 }, "name": "Bouskene", "id": "917", "zipCode": "26019" }, { "location": { "lon": 3.1177555, "lat": 36.0272162 }, "name": "Rebaia", "id": "918", "zipCode": "26020" }, { "location": { "lon": 3.1578875, "lat": 36.2865922 }, "name": "Bouchrahil", "id": "919", "zipCode": "26021" }, { "location": { "lon": 2.4980197, "lat": 35.9370104 }, "name": "Ouled Hellal", "id": "920", "zipCode": "26022" }, { "location": { "lon": 3.318747, "lat": 35.978354 }, "name": "Tafraout", "id": "921", "zipCode": "26023" }, { "location": { "lon": 3.1177555, "lat": 36.3742549 }, "name": "Baata", "id": "922", "zipCode": "26024" }, { "location": { "lon": 2.7182728, "lat": 35.9498907 }, "name": "Boghar", "id": "923", "zipCode": "26025" }, { "location": { "lon": 3.0876783, "lat": 36.2559141 },